<?xml version="1.0" encoding="UTF-8"?>
<locations xsi:noNamespaceSchemaLocation="file:///C:/Users/k_kol/workspace_python/webdata/wdi/mappings/mappings/target/target.xsd" xmlns:xsi="http://www.w3.org/2001/XMLSchema-instance">
	<location>
		<id>prinz_1</id>
		<name>Fitness Company Berlin (Rüdersdorfer Straße)</name>
		<type>Sportaktivitäten &amp; Freizeitangebote,Fitnessstudio</type>
		<email>Fitness-Company@web.de</email>
		<website>http://www.fitnesscompany-berlin.de/</website>
		<phone>+493029782000</phone>
		<streetAddress>Rüdersdorfer Straße 71</streetAddress>
		<postalCode>10243</postalCode>
		<latitude>52.5107245</latitude>
		<longitude>13.447314</longitude>
		<rating>5</rating>
		<photos/>
	</location>
	<location>
		<id>prinz_2</id>
		<name>Zip Berlin</name>
		<type>Essen &amp; Trinken,Restaurants,Internationale Küche</type>
		<website>https://www.zipberlin.de/</website>
		<phone>+493029689060</phone>
		<streetAddress>Pannierstraße 57</streetAddress>
		<postalCode>12047</postalCode>
		<latitude>52.4869727</latitude>
		<longitude>13.4306615</longitude>
		<photos>
			<url>https://img.prinz.de/ZRAFLLKknQ-tinFi73opaxqQNEg=/370x278/smart/filters:brightness(5):contrast(5)/https://edn-cdn.s3.amazonaws.com/e6/e64b70fc7fa6580ce42d15e22e4a17a8.png</url>
		</photos>
	</location>
	<location>
		<id>prinz_3</id>
		<name>Bistro Kreuz + Kümmel</name>
		<type>Essen &amp; Trinken,Cafés,Bistro</type>
		<email>hallo@kreuzundkuemmel.de</email>
		<website>http://kreuzundkuemmel.de/</website>
		<phone>+493028092845</phone>
		<streetAddress>Christburger Straße 13</streetAddress>
		<postalCode>10405</postalCode>
		<latitude>52.5352437</latitude>
		<longitude>13.4276162</longitude>
		<photos>
			<url>https://img.prinz.de/TtPNnQstSaUqtPnjrjfup00orrw=/370x278/smart/filters:brightness(5):contrast(5)/https://edn-cdn.s3.amazonaws.com/de/de67deebb10f1c9d7ed885239fb261bc.jpeg</url>
		</photos>
	</location>
	<location>
		<id>prinz_4</id>
		<name>Braufactum Berlin</name>
		<type>Ausgehen,Bars,Bar</type>
		<website>http://berlin.braufactum.de/</website>
		<phone>+493084712959</phone>
		<streetAddress>Memhardstr. 1 - 3</streetAddress>
		<postalCode>10178</postalCode>
		<latitude>52.52361</latitude>
		<longitude>13.41043</longitude>
		<photos/>
	</location>
	<location>
		<id>prinz_5</id>
		<name>13 Kanus</name>
		<type>Sportaktivitäten &amp; Freizeitangebote,Bootsverleih</type>
		<website>http://13kanus.de</website>
		<streetAddress>Am Küstergarten 18</streetAddress>
		<postalCode>12589</postalCode>
		<latitude>52.43114</latitude>
		<longitude>13.69198</longitude>
		<photos/>
	</location>
	<location>
		<id>prinz_6</id>
		<name>1001 Nacht</name>
		<type>Sportaktivitäten &amp; Freizeitangebote,Erotik</type>
		<streetAddress>Bleibtreustr. 29</streetAddress>
		<postalCode>10623</postalCode>
		<latitude>52.49980905</latitude>
		<longitude>13.31929951</longitude>
		<photos/>
	</location>
	<location>
		<id>prinz_7</id>
		<name>McFit (Mitte)</name>
		<type>Sportaktivitäten &amp; Freizeitangebote,Fitnessstudio</type>
		<website>http://www.mcfit.de/</website>
		<phone>+493024723621</phone>
		<streetAddress>Heinrich-Heine-Str. 15</streetAddress>
		<postalCode>10179</postalCode>
		<latitude>52.507715</latitude>
		<longitude>13.414055</longitude>
		<rating>3</rating>
		<photos>
			<url>https://img.prinz.de/fwFz_sM4rEdTFnWAAtE9W0u3-TM=/370x278/smart/filters:brightness(5):contrast(5)/https://edn-cdn.s3.amazonaws.com/15/1523f2b2316bf0806451e065ddfd06f0.jpg</url>
		</photos>
	</location>
	<location>
		<id>prinz_8</id>
		<name>Women’s Gym Jopp &amp; Jopp</name>
		<type>Sportaktivitäten &amp; Freizeitangebote,Fitnessstudio</type>
		<website>http://www.jopp.ag/</website>
		<postalCode>12099</postalCode>
		<latitude>52.4590856</latitude>
		<longitude>13.403328</longitude>
		<rating>4</rating>
		<photos>
			<url>https://img.prinz.de/UGc_38uMWK5bzz3EcXS9z0is9E4=/370x278/smart/filters:brightness(5):contrast(5)/https://edn-cdn.s3.amazonaws.com/24/24f9ace97482fdb315eddb15c5588a55.jpg</url>
		</photos>
	</location>
	<location>
		<id>prinz_9</id>
		<name>South Beach Berlin</name>
		<type>Sportaktivitäten &amp; Freizeitangebote,Vereine</type>
		<email>info@southbeachberlin.de</email>
		<website>http://www.southbeachberlin.de/startseite/</website>
		<phone>+493055871068</phone>
		<streetAddress>Trachenbergring 85</streetAddress>
		<postalCode>12249</postalCode>
		<latitude>52.428104</latitude>
		<longitude>13.3696</longitude>
		<rating>4</rating>
		<photos/>
	</location>
	<location>
		<id>prinz_10</id>
		<name>Kieser Training (Mitte)</name>
		<type>Sportaktivitäten &amp; Freizeitangebote,Fitnessstudio</type>
		<website>http://www.kieser-training.de/</website>
		<phone>+493097893841</phone>
		<streetAddress>Hannoversche Str. 19</streetAddress>
		<postalCode>10115</postalCode>
		<latitude>52.5270667</latitude>
		<longitude>13.3863151</longitude>
		<rating>4</rating>
		<photos>
			<url>https://img.prinz.de/aaRBCzre67I3ocb5A6d-WGdsVuM=/370x278/smart/filters:brightness(5):contrast(5)/https://media.prinz.de/locations/berlin/berlin/3179eb8836f3d90cf3bccc3dfb280bbf</url>
		</photos>
	</location>
	<location>
		<id>prinz_11</id>
		<name>Holmes Place</name>
		<type>Sportaktivitäten &amp; Freizeitangebote,Fitnessstudio</type>
		<website>http://www.holmesplace.de/</website>
		<phone>+4930814003202</phone>
		<streetAddress>Gabriele-Tergit-Promenade 17</streetAddress>
		<postalCode>10963</postalCode>
		<latitude>52.504614</latitude>
		<longitude>13.3745497</longitude>
		<rating>4</rating>
		<photos>
			<url>https://img.prinz.de/FZURO2H9ReOHrYWtSGVx5kLzJUU=/370x278/smart/filters:brightness(5):contrast(5)/https://edn-cdn.s3.amazonaws.com/b8/b8e52cc27cdc6064067f989e273803af.jpg</url>
		</photos>
	</location>
	<location>
		<id>prinz_12</id>
		<name>Wertvoll</name>
		<type>Shopping &amp; Style,Einrichtung &amp; Deko,Designer Adressen</type>
		<website>http://www.wertvoll-berlin.com</website>
		<phone>+493025567726</phone>
		<streetAddress>Marienburger Str. 39</streetAddress>
		<postalCode>10405</postalCode>
		<latitude>52.5346453</latitude>
		<longitude>13.4248397</longitude>
		<rating>5</rating>
		<photos/>
	</location>
	<location>
		<id>prinz_13</id>
		<name>All In Bowling</name>
		<type>Sportaktivitäten &amp; Freizeitangebote,Billard &amp; Bowling</type>
		<email>mv@allin-bowling.de</email>
		<website>http://www.allin-bowling.de/</website>
		<phone>+493040711106</phone>
		<streetAddress>Zerpenschleuser Ring 37</streetAddress>
		<postalCode>13439</postalCode>
		<latitude>52.6048732</latitude>
		<longitude>13.3668683</longitude>
		<photos/>
	</location>
	<location>
		<id>prinz_14</id>
		<name>aktiVitale Gesundheitszentrum Berlin-Friedenau</name>
		<type>Sportaktivitäten &amp; Freizeitangebote,Fitnessstudio</type>
		<website>http://www.aktivitale.de/</website>
		<phone>+493085406323</phone>
		<streetAddress>Hauptstr. 78-79</streetAddress>
		<postalCode>12159</postalCode>
		<latitude>52.47333</latitude>
		<longitude>13.33686</longitude>
		<photos/>
	</location>
	<location>
		<id>prinz_15</id>
		<name>Aikidoschule Berlin</name>
		<type>Sportaktivitäten &amp; Freizeitangebote,Kampfsport</type>
		<email>info@aikidoschule.de</email>
		<website>http://www.aikidoschule.de/</website>
		<phone>+493089392725</phone>
		<streetAddress>Hohenstaufentraße 47 (Im Hofgebäude der Georg-von-Giesche Schule, 2. OG)</streetAddress>
		<postalCode>10779</postalCode>
		<latitude>52.4941437</latitude>
		<longitude>13.3425288</longitude>
		<photos>
			<url>https://img.prinz.de/06SL9pwU1bPEGxcWWFUAXs7wzYc=/370x278/smart/filters:brightness(5):contrast(5)/https://edn-cdn.s3.amazonaws.com/61/61c8866d63dd8b99ddd39957922b5f0b.jpg</url>
		</photos>
	</location>
	<location>
		<id>prinz_16</id>
		<name>Ahoi Ostkreuz</name>
		<type>Sportaktivitäten &amp; Freizeitangebote,Bootsverleih</type>
		<email>kontakt@ahoi-ostkreuz.de</email>
		<website>http://ahoi-ostkreuz.de/</website>
		<phone>+491798888372</phone>
		<streetAddress>Paul und Paula Ufer</streetAddress>
		<postalCode>10317</postalCode>
		<latitude>52.5001756</latitude>
		<longitude>13.4713459</longitude>
		<photos>
			<url>https://img.prinz.de/GAMzdtMRmMaEXodBjrlOlDMiBeg=/370x278/smart/filters:brightness(5):contrast(5)/https://edn-cdn.s3.amazonaws.com/76/76bb1d053b0e63e7433fb8061cdbcb56.jpg</url>
		</photos>
	</location>
	<location>
		<id>prinz_17</id>
		<name>AHA-Berlin e.V.</name>
		<type>Sportaktivitäten &amp; Freizeitangebote,Vereine</type>
		<website>http://aha-berlin.de/</website>
		<phone>+493089627948</phone>
		<streetAddress>Monumentenstraße 13 </streetAddress>
		<postalCode>10829</postalCode>
		<latitude>52.4882389</latitude>
		<longitude>13.3677241</longitude>
		<photos/>
	</location>
	<location>
		<id>prinz_18</id>
		<name>Activsports Berlin Charlottenburg</name>
		<type>Sportaktivitäten &amp; Freizeitangebote,Fitnessstudio</type>
		<website>http://www.activ-fitness-deutschland.de/berlin-charlottenburg.html</website>
		<phone>+493039746437</phone>
		<streetAddress>Salzufer 13</streetAddress>
		<postalCode>10587</postalCode>
		<latitude>52.51854</latitude>
		<longitude>13.32303</longitude>
		<photos/>
	</location>
	<location>
		<id>prinz_19</id>
		<name>Activo Gesundheitskurse</name>
		<type>Sportaktivitäten &amp; Freizeitangebote,Fitnessstudio</type>
		<website>http://www.activo-berlin.com</website>
		<phone>+493068058119</phone>
		<streetAddress>Silbersteinstr. 120</streetAddress>
		<latitude>52.519171</latitude>
		<longitude>13.4060912</longitude>
		<photos/>
	</location>
	<location>
		<id>prinz_20</id>
		<name>Acroverde Pilates Zentrum</name>
		<type>Sportaktivitäten &amp; Freizeitangebote,Yoga </type>
		<website>http://www.pilateszentrumberlin.de</website>
		<phone>+493040301875</phone>
		<streetAddress>Cantianstr. 11</streetAddress>
		<postalCode>10437</postalCode>
		<latitude>52.5450457</latitude>
		<longitude>13.4107957</longitude>
		<photos/>
	</location>
	<location>
		<id>prinz_21</id>
		<name>Academia Jangada (Torstraße)</name>
		<type>Sportaktivitäten &amp; Freizeitangebote,Fitnessstudio</type>
		<website>http://www.jangada.com/</website>
		<streetAddress>Torstr. 109</streetAddress>
		<postalCode>10119</postalCode>
		<latitude>52.529872</latitude>
		<longitude>13.4028824</longitude>
		<photos/>
	</location>
	<location>
		<id>prinz_22</id>
		<name>Academia Jangada (Schönhauser Allee)</name>
		<type>Sportaktivitäten &amp; Freizeitangebote,Tanzschulen</type>
		<streetAddress>Schönhauser Allee 36</streetAddress>
		<postalCode>10435</postalCode>
		<latitude>52.54465213</latitude>
		<longitude>13.41240152</longitude>
		<photos/>
	</location>
	<location>
		<id>prinz_23</id>
		<name>Burgersteig</name>
		<type>Essen &amp; Trinken,Restaurants,Imbisse</type>
		<website>http://www.burgersteig-berlin.de/</website>
		<phone>+493069537153</phone>
		<streetAddress>Falkensteinstr. 43</streetAddress>
		<postalCode>10997</postalCode>
		<latitude>52.519171</latitude>
		<longitude>13.4060912</longitude>
		<rating>5</rating>
		<photos>
			<url>https://img.prinz.de/pk2dfkt_83Q_wcowfehEphnOwq4=/370x278/smart/filters:brightness(5):contrast(5)/https://media.prinz.de/locations/berlin/berlin/bd84bde94697a516aff7b070f9d42a4d</url>
		</photos>
	</location>
	<location>
		<id>prinz_24</id>
		<name>Ars Vitalis</name>
		<type>Sportaktivitäten &amp; Freizeitangebote,Fitnessstudio</type>
		<website>http://www.ars-vitalis.de/</website>
		<phone>+4930311659495</phone>
		<streetAddress>Hauptstr.19</streetAddress>
		<postalCode>10827</postalCode>
		<latitude>52.4867093</latitude>
		<longitude>13.356574</longitude>
		<photos>
			<url>https://img.prinz.de/kJOVw7lEdJb3X-Tva_DmJ_ciSos=/370x278/smart/filters:brightness(5):contrast(5)/https://media.prinz.de/locations/berlin/berlin/74568e76415d4fbb37b3d055f24aff49</url>
		</photos>
	</location>
	<location>
		<id>prinz_25</id>
		<name>A-Rosa Golf- &amp; Sporting-Club Berlin</name>
		<type>Sportaktivitäten &amp; Freizeitangebote</type>
		<streetAddress>Parkallee 1</streetAddress>
		<postalCode>15526</postalCode>
		<latitude>52.238802</latitude>
		<longitude>14.027444</longitude>
		<photos/>
	</location>
	<location>
		<id>prinz_26</id>
		<name>Arena Badeschiff</name>
		<type>Sportaktivitäten &amp; Freizeitangebote,Schwimmbad</type>
		<website>http://www.arena-berlin.de/</website>
		<phone>+49305332030</phone>
		<streetAddress>Eichenstraße 4</streetAddress>
		<postalCode>12435</postalCode>
		<latitude>52.496692</latitude>
		<longitude>13.45474</longitude>
		<photos>
			<url>https://img.prinz.de/Fobt74LXUNcdFeeprDMWrQD0gJk=/370x278/smart/filters:brightness(5):contrast(5)/https://media.prinz.de/locations/berlin/berlin/84637b46d0545ee95884f167863d6585</url>
		</photos>
	</location>
	<location>
		<id>prinz_27</id>
		<name>Arcoverde Pilatesstudio</name>
		<type>Sportaktivitäten &amp; Freizeitangebote,Fitnessstudio</type>
		<email>mail@arcoverde-pilatesstudio.de</email>
		<website>http://www.pilates-training-berlin.de/</website>
		<phone>+493025762739</phone>
		<streetAddress>Hackescher Markt 2-3</streetAddress>
		<postalCode>10178</postalCode>
		<latitude>52.5238714</latitude>
		<longitude>13.4021199</longitude>
		<photos/>
	</location>
	<location>
		<id>prinz_28</id>
		<name>Arcoverde</name>
		<type>Sportaktivitäten &amp; Freizeitangebote,Yoga </type>
		<email>chburg@arcoverde-pilates.de</email>
		<website>http://pilatesinberlin.de</website>
		<phone>+493040301875</phone>
		<streetAddress>Wielandstr. 6</streetAddress>
		<postalCode>10625</postalCode>
		<latitude>52.50578</latitude>
		<longitude>13.31524</longitude>
		<photos/>
	</location>
	<location>
		<id>prinz_29</id>
		<name>Aquaris Wassertouristik</name>
		<type>Sportaktivitäten &amp; Freizeitangebote,Bootsverleih</type>
		<website>http://aquaris.info</website>
		<streetAddress>Katzengraben 19</streetAddress>
		<postalCode>12555</postalCode>
		<latitude>52.44592</latitude>
		<longitude>13.5795</longitude>
		<photos/>
	</location>
	<location>
		<id>prinz_30</id>
		<name>Aqua Medical Akademie</name>
		<type>Sportaktivitäten &amp; Freizeitangebote,Fitnessstudio</type>
		<website>http://www.aquamedical.de</website>
		<phone>+493040108131</phone>
		<streetAddress>Sigismundkorso </streetAddress>
		<latitude>52.519171</latitude>
		<longitude>13.4060912</longitude>
		<photos/>
	</location>
	<location>
		<id>prinz_31</id>
		<name>Apollo City Sauna</name>
		<type>Sportaktivitäten &amp; Freizeitangebote,Erotik</type>
		<streetAddress>Kurfürstenstr. 101</streetAddress>
		<postalCode>10787</postalCode>
		<latitude>52.5048077</latitude>
		<longitude>13.3418947</longitude>
		<photos/>
	</location>
	<location>
		<id>prinz_32</id>
		<name>American Fitness</name>
		<type>Sportaktivitäten &amp; Freizeitangebote,Fitnessstudio</type>
		<website>http://www.american-fitness-center.de</website>
		<phone>+493069807090</phone>
		<streetAddress>Hermannplatz 10</streetAddress>
		<postalCode>10967</postalCode>
		<latitude>52.4871713</latitude>
		<longitude>13.4245603</longitude>
		<photos/>
	</location>
	<location>
		<id>prinz_33</id>
		<name>AMERICAN BOWL &amp; PLAY OFF Marzahn</name>
		<type>Sportaktivitäten &amp; Freizeitangebote,Billard &amp; Bowling</type>
		<email>info@american-bowl-berlin.de</email>
		<website>http://www.american-bowl-berlin.de/</website>
		<phone>+493093495688</phone>
		<streetAddress>Märkische Allee 176 - 178</streetAddress>
		<postalCode>12681</postalCode>
		<latitude>52.5422342</latitude>
		<longitude>13.5415616</longitude>
		<photos/>
	</location>
	<location>
		<id>prinz_34</id>
		<name>Alt-Moabit 141</name>
		<type>Sportaktivitäten &amp; Freizeitangebote,Yoga </type>
		<streetAddress>Alt-Moabit 41 </streetAddress>
		<postalCode>10555</postalCode>
		<latitude>52.524359</latitude>
		<longitude>13.33319</longitude>
		<photos/>
	</location>
	<location>
		<id>prinz_35</id>
		<name>SAGE Restaurant</name>
		<type>Ausgehen,Clubs</type>
		<website>http://www.sage-restaurant.de/cms/</website>
		<phone>+4930755494071</phone>
		<streetAddress>Köpenicker Straße 18-20</streetAddress>
		<postalCode>10997</postalCode>
		<latitude>52.5055878</latitude>
		<longitude>13.4327657</longitude>
		<rating>4</rating>
		<photos>
			<url>https://img.prinz.de/84k0-HWpy1nk7nAcfYeajiCjGrs=/370x278/smart/filters:brightness(5):contrast(5)/https://media.prinz.de/locations/berlin/berlin/0fb5deb1625bf5faaec2f3b8ced302d4</url>
		</photos>
	</location>
	<location>
		<id>prinz_36</id>
		<name>Bauchladen Kurfürstendamm</name>
		<type>Sportaktivitäten &amp; Freizeitangebote,Fitnessstudio</type>
		<website>http://www.bauchladen-info.de</website>
		<phone>+493088726887</phone>
		<streetAddress>Kurfürstendamm 65</streetAddress>
		<postalCode>10707</postalCode>
		<latitude>52.500409</latitude>
		<longitude>13.310162</longitude>
		<photos/>
	</location>
	<location>
		<id>prinz_37</id>
		<name>Bauchladen (Joachim-Friedrich-Straße)</name>
		<type>Sportaktivitäten &amp; Freizeitangebote,Fitnessstudio</type>
		<website>http://www.bauchladen-info.de/</website>
		<phone>+493088726887</phone>
		<streetAddress>. 37/38</streetAddress>
		<postalCode>10711</postalCode>
		<latitude>52.4996797</latitude>
		<longitude>13.2963444</longitude>
		<photos/>
	</location>
	<location>
		<id>prinz_38</id>
		<name>Bauchladen Eisenacher Str.</name>
		<type>Sportaktivitäten &amp; Freizeitangebote,Fitnessstudio</type>
		<website>http://www.bauchladen-info.de</website>
		<phone>+49308522224</phone>
		<streetAddress>Eisenacher Str. 2</streetAddress>
		<postalCode>10777</postalCode>
		<latitude>52.539549</latitude>
		<longitude>13.591576</longitude>
		<photos/>
	</location>
	<location>
		<id>prinz_39</id>
		<name>Bar Extrem</name>
		<type>Sportaktivitäten &amp; Freizeitangebote,Erotik</type>
		<streetAddress>Schliemannstr. 56</streetAddress>
		<postalCode>10437</postalCode>
		<latitude>52.54117364</latitude>
		<longitude>13.41696102</longitude>
		<photos/>
	</location>
	<location>
		<id>prinz_40</id>
		<name>Bangkok Nightclub</name>
		<type>Sportaktivitäten &amp; Freizeitangebote,Erotik</type>
		<streetAddress>Lewishamstr. 9</streetAddress>
		<postalCode>10629</postalCode>
		<latitude>52.50262896</latitude>
		<longitude>13.30497754</longitude>
		<photos/>
	</location>
	<location>
		<id>prinz_41</id>
		<name>Bammelecke</name>
		<type>Sportaktivitäten &amp; Freizeitangebote,Schwimmbad</type>
		<streetAddress>Sportpromenade 1</streetAddress>
		<postalCode>12527</postalCode>
		<latitude>52.406728</latitude>
		<longitude>13.612902</longitude>
		<photos/>
	</location>
	<location>
		<id>prinz_42</id>
		<name>Ballhaus Walzerlinksgestrickt</name>
		<type>Sportaktivitäten &amp; Freizeitangebote,Tanzschulen</type>
		<website>http://www.walzerlinksgestrickt.de/</website>
		<phone>+493069505000</phone>
		<streetAddress>Am Tempelhofer Berg 7d</streetAddress>
		<postalCode>10965</postalCode>
		<latitude>52.4882</latitude>
		<longitude>13.38859</longitude>
		<photos/>
	</location>
	<location>
		<id>prinz_43</id>
		<name>Bad Boy'z</name>
		<type>Sportaktivitäten &amp; Freizeitangebote,Erotik</type>
		<streetAddress>Schliemannstr. 38</streetAddress>
		<postalCode>10437</postalCode>
		<latitude>52.54226208</latitude>
		<longitude>13.41817514</longitude>
		<photos/>
	</location>
	<location>
		<id>prinz_44</id>
		<name>Axxel Fitnessstudio</name>
		<type>Sportaktivitäten &amp; Freizeitangebote,Fitnessstudio</type>
		<website>http://www.24-stunden-fitness.de</website>
		<phone>+493021753000</phone>
		<streetAddress>Bülowstraße 57</streetAddress>
		<postalCode>10783</postalCode>
		<latitude>52.495034</latitude>
		<longitude>13.36673</longitude>
		<photos>
			<url>https://img.prinz.de/iCPr8PCDhiwH8JJAAMBGJZOFcdM=/370x278/smart/filters:brightness(5):contrast(5)/https://media.prinz.de/locations/berlin/berlin/63e478932b6d2e9f189331839a8aae99</url>
		</photos>
	</location>
	<location>
		<id>prinz_45</id>
		<name>Athletenschmiede</name>
		<type>Sportaktivitäten &amp; Freizeitangebote,Fitnessstudio</type>
		<phone>+493029492780</phone>
		<streetAddress>Grünberger Str. 44</streetAddress>
		<postalCode>10245</postalCode>
		<latitude>52.512044</latitude>
		<longitude>13.4543923</longitude>
		<photos/>
	</location>
	<location>
		<id>prinz_46</id>
		<name>Azucar</name>
		<type>Sportaktivitäten &amp; Freizeitangebote,Tanzschulen</type>
		<streetAddress>Hauptstr. 26</streetAddress>
		<postalCode>10827</postalCode>
		<latitude>52.48571528</latitude>
		<longitude>13.35492589</longitude>
		<photos/>
	</location>
	<location>
		<id>prinz_47</id>
		<name>Argus Fotokunst</name>
		<type>Kultureinrichtungen,Galerien</type>
		<streetAddress>Marienstr. 9</streetAddress>
		<postalCode>10117</postalCode>
		<latitude>52.52188981</latitude>
		<longitude>13.38211141</longitude>
		<photos/>
	</location>
	<location>
		<id>prinz_48</id>
		<name>Berlin outside</name>
		<type>Sportaktivitäten &amp; Freizeitangebote,Bootsverleih</type>
		<website>http://berlin-outside.de</website>
		<streetAddress>Am Großen Wannsee 58-60</streetAddress>
		<postalCode>14109</postalCode>
		<latitude>52.4327411</latitude>
		<longitude>13.1642984</longitude>
		<photos/>
	</location>
	<location>
		<id>prinz_49</id>
		<name>Berliner Volleyball Verband</name>
		<type>Sportaktivitäten &amp; Freizeitangebote,Fitnessstudio</type>
		<website>http://www.vvb-online.de</website>
		<phone>+493031999933</phone>
		<streetAddress>Glockenturmstr. 3-5</streetAddress>
		<postalCode>14053</postalCode>
		<latitude>52.5135258</latitude>
		<longitude>13.2268561</longitude>
		<photos/>
	</location>
	<location>
		<id>prinz_50</id>
		<name>Berliner Schwimm-Verband</name>
		<type>Sportaktivitäten &amp; Freizeitangebote,Schwimmbad</type>
		<website>http://www.berliner-schwimm-verband.de</website>
		<phone>+49309710150</phone>
		<streetAddress>Landsberger Allee 203</streetAddress>
		<postalCode>13055</postalCode>
		<latitude>52.533234</latitude>
		<longitude>13.477531</longitude>
		<photos/>
	</location>
	<location>
		<id>prinz_51</id>
		<name>Berliner Box-Verband</name>
		<type>Sportaktivitäten &amp; Freizeitangebote,Fitnessstudio</type>
		<website>http://www.boxsport-berlin.de</website>
		<phone>+493042103405</phone>
		<streetAddress>Paul-Heyse-Str. 29</streetAddress>
		<postalCode>10407</postalCode>
		<latitude>52.5312934</latitude>
		<longitude>13.4490819</longitude>
		<photos/>
	</location>
	<location>
		<id>prinz_52</id>
		<name>Berliner Bäder-Betriebe</name>
		<type>Shopping &amp; Style,Weitere Adressen</type>
		<website>http://www.berlinerbaederbetriebe.de</website>
		<streetAddress>Wiener Straße 59h</streetAddress>
		<postalCode>10999</postalCode>
		<latitude>52.4969173</latitude>
		<longitude>13.4333108</longitude>
		<photos/>
	</location>
	<location>
		<id>prinz_53</id>
		<name>Berlin Dungeon</name>
		<type>Sportaktivitäten &amp; Freizeitangebote,Freizeit &amp; Abenteuer</type>
		<website>https://www.thedungeons.com/berlin/de/</website>
		<streetAddress>Spandauer Straße 2</streetAddress>
		<postalCode>10178</postalCode>
		<latitude>52.5212242</latitude>
		<longitude>13.4040133</longitude>
		<photos>
			<url>https://img.prinz.de/M7x3cgtyBcpe3IcpRLjXtPDCR7o=/370x278/smart/filters:brightness(5):contrast(5)/https://edn-cdn.s3.amazonaws.com/21/21bff1da343db43616bfa01684ef1c4a.jpg</url>
		</photos>
	</location>
	<location>
		<id>prinz_54</id>
		<name>Berlin Burlesque Academy</name>
		<type>Sportaktivitäten &amp; Freizeitangebote,Tanzschulen</type>
		<website>http://berlin-burlesque-academy.com/locations/</website>
		<streetAddress>Greifenhagener Str. 64</streetAddress>
		<postalCode>10437</postalCode>
		<latitude>52.54545</latitude>
		<longitude>13.41424</longitude>
		<photos/>
	</location>
	<location>
		<id>prinz_55</id>
		<name>Berlin Bootsverleih</name>
		<type>Sportaktivitäten &amp; Freizeitangebote,Bootsverleih</type>
		<email>info@berlin-bootsverleih.com</email>
		<website>http://www.berlin-bootsverleih.com/</website>
		<phone>+491757495775</phone>
		<streetAddress>Knobelsdorffstr. 17</streetAddress>
		<postalCode>14059</postalCode>
		<latitude>52.51327</latitude>
		<longitude>13.29384</longitude>
		<photos>
			<url>https://img.prinz.de/9iH2azB6gqldGxWIHQ39LfBgKx0=/370x278/smart/filters:brightness(5):contrast(5)/https://edn-cdn.s3.amazonaws.com/f6/f6d8db5f4d76b119113abee73cfece47.jpg</url>
		</photos>
	</location>
	<location>
		<id>prinz_56</id>
		<name>Bel Ami</name>
		<type>Sportaktivitäten &amp; Freizeitangebote,Erotik</type>
		<streetAddress>Flatowallee 14</streetAddress>
		<postalCode>14055</postalCode>
		<latitude>52.50939474</latitude>
		<longitude>13.24164731</longitude>
		<photos/>
	</location>
	<location>
		<id>prinz_57</id>
		<name>Beate Uhse Erotik Museum</name>
		<type>Sportaktivitäten &amp; Freizeitangebote,Erotik</type>
		<streetAddress>Joachimstaler Str. 4</streetAddress>
		<postalCode>10623</postalCode>
		<latitude>52.50556309</latitude>
		<longitude>13.33151651</longitude>
		<photos/>
	</location>
	<location>
		<id>prinz_58</id>
		<name>Beach Zone</name>
		<type>Sportaktivitäten &amp; Freizeitangebote,Fitnessstudio</type>
		<website>http://www.beach-zone.de</website>
		<phone>+493096066332</phone>
		<streetAddress>Am Berl 21</streetAddress>
		<postalCode>13051</postalCode>
		<latitude>52.573595</latitude>
		<longitude>13.5005605</longitude>
		<photos/>
	</location>
	<location>
		<id>prinz_59</id>
		<name>Astor 1</name>
		<type>Kultureinrichtungen,Kinos</type>
		<streetAddress>Kurfürstendamm 217</streetAddress>
		<postalCode>10719</postalCode>
		<latitude>52.50285753</latitude>
		<longitude>13.32771588</longitude>
		<photos/>
	</location>
	<location>
		<id>prinz_60</id>
		<name>Billardsalon im Q-Club</name>
		<type>Sportaktivitäten &amp; Freizeitangebote,Billard &amp; Bowling</type>
		<email>info@q-club-billard.de</email>
		<website>http://www.q-club-billard.de/</website>
		<streetAddress>Forster Straße 5</streetAddress>
		<postalCode>10999</postalCode>
		<latitude>52.49593</latitude>
		<longitude>13.43331</longitude>
		<photos/>
	</location>
	<location>
		<id>prinz_61</id>
		<name>billard international MM GmbH</name>
		<type>Sportaktivitäten &amp; Freizeitangebote,Billard &amp; Bowling</type>
		<website>http://www.billard-international.de/index.php</website>
		<phone>+49308833912</phone>
		<streetAddress>Knesebeckstr. 38-49</streetAddress>
		<postalCode>10719</postalCode>
		<latitude>52.50091</latitude>
		<longitude>13.32118</longitude>
		<photos/>
	</location>
	<location>
		<id>prinz_62</id>
		<name>Billard Company Salon Treptow</name>
		<type>Sportaktivitäten &amp; Freizeitangebote,Billard &amp; Bowling</type>
		<email>info@billard-company.de</email>
		<website>http://www.billard-company.de/</website>
		<phone>+49305347134</phone>
		<streetAddress>Bouchéstraße 12</streetAddress>
		<postalCode>12435</postalCode>
		<latitude>52.4922</latitude>
		<longitude>13.45152</longitude>
		<photos/>
	</location>
	<location>
		<id>prinz_63</id>
		<name>Billardcenter Weißensee &amp; Biker Rast</name>
		<type>Sportaktivitäten &amp; Freizeitangebote,Billard &amp; Bowling</type>
		<email>info@billard-weissensee.de</email>
		<website>http://www.billard-weissensee.de/</website>
		<phone>+493096201535</phone>
		<streetAddress>Jacobsohnstr. 20</streetAddress>
		<postalCode>13086</postalCode>
		<latitude>13.4337</latitude>
		<longitude>52.5552</longitude>
		<photos/>
	</location>
	<location>
		<id>prinz_64</id>
		<name>BILLARD CENTER BERLIN</name>
		<type>Sportaktivitäten &amp; Freizeitangebote,Billard &amp; Bowling</type>
		<website>http://www.billard-center-berlin.de/ueberuns_billyardfabrik.htm</website>
		<phone>+493042089456</phone>
		<streetAddress>Landsberger Allee 52</streetAddress>
		<postalCode>10249</postalCode>
		<latitude>52.5245</latitude>
		<longitude>13.44284</longitude>
		<photos/>
	</location>
	<location>
		<id>prinz_65</id>
		<name>Billardcafe Break Berlin</name>
		<type>Sportaktivitäten &amp; Freizeitangebote,Billard &amp; Bowling</type>
		<email>service@billardcafe-break.de</email>
		<website>http://www.billardcafe-break.de/</website>
		<phone>+49304148023</phone>
		<streetAddress>Thyssenstrasse 7 - 17</streetAddress>
		<postalCode>13407</postalCode>
		<latitude>52.58029</latitude>
		<longitude>13.34448</longitude>
		<photos/>
	</location>
	<location>
		<id>prinz_66</id>
		<name>Billardaire</name>
		<type>Sportaktivitäten &amp; Freizeitangebote,Billard &amp; Bowling</type>
		<email>info@billardaire.de</email>
		<website>http://www.billardaire.de/</website>
		<phone>+49307841177</phone>
		<streetAddress>Monumentenstraße 35 / 2. Hinterhof</streetAddress>
		<postalCode>10829</postalCode>
		<latitude>52.48852</latitude>
		<longitude>13.36533</longitude>
		<photos/>
	</location>
	<location>
		<id>prinz_67</id>
		<name>Bikram Yoga (Neue Schönhauser Straße)</name>
		<type>Sportaktivitäten &amp; Freizeitangebote,Yoga </type>
		<website>http://www.bikram-berlin.de/</website>
		<phone>+493030878783</phone>
		<streetAddress>Neue Schönhauser Str. 19</streetAddress>
		<postalCode>10178</postalCode>
		<latitude>52.5247802</latitude>
		<longitude>13.4057037</longitude>
		<photos/>
	</location>
	<location>
		<id>prinz_68</id>
		<name>Bikram Yoga (Mehringdamm)</name>
		<type>Sportaktivitäten &amp; Freizeitangebote,Yoga </type>
		<email>info@bikramyogaberlin.de</email>
		<website>http://www.bikramyogaberlin.de/</website>
		<phone>+493069565522</phone>
		<streetAddress>Mehringdamm 33</streetAddress>
		<postalCode>10961</postalCode>
		<latitude>52.4932239</latitude>
		<longitude>13.388051</longitude>
		<photos/>
	</location>
	<location>
		<id>prinz_69</id>
		<name>Big Sexyland</name>
		<type>Sportaktivitäten &amp; Freizeitangebote,Erotik</type>
		<streetAddress>Martin-Luther-Str. 18</streetAddress>
		<postalCode>10777</postalCode>
		<latitude>52.49768526</latitude>
		<longitude>13.34586968</longitude>
		<photos/>
	</location>
	<location>
		<id>prinz_70</id>
		<name>Big Bowl</name>
		<type>Sportaktivitäten &amp; Freizeitangebote,Billard &amp; Bowling</type>
		<email>info@Big-Bowl-Berlin.de</email>
		<website>http://www.Big-Bowl-Berlin.de/</website>
		<phone>+493056301298</phone>
		<streetAddress>Feldberger Ring 5</streetAddress>
		<postalCode>12619</postalCode>
		<latitude>52.52775</latitude>
		<longitude>13.58735</longitude>
		<photos/>
	</location>
	<location>
		<id>prinz_71</id>
		<name>Berolina Bowling Lounge</name>
		<type>Sportaktivitäten &amp; Freizeitangebote,Billard &amp; Bowling</type>
		<website>http://www.berolina-bowling.de/</website>
		<phone>+493021966643</phone>
		<streetAddress>Kleiststr. 3-6</streetAddress>
		<postalCode>10787</postalCode>
		<latitude>52.50041</latitude>
		<longitude>13.35169</longitude>
		<photos/>
	</location>
	<location>
		<id>prinz_72</id>
		<name>Bootsrundfahrt</name>
		<type>Sportaktivitäten &amp; Freizeitangebote,Bootsverleih</type>
		<streetAddress>Adolf-August-Str. 35</streetAddress>
		<postalCode>16244</postalCode>
		<latitude>52.914477</latitude>
		<longitude>13.71322</longitude>
		<photos/>
	</location>
	<location>
		<id>prinz_73</id>
		<name>Boots-Charter Lüders</name>
		<type>Sportaktivitäten &amp; Freizeitangebote,Bootsverleih</type>
		<streetAddress>Strandbad Wannsee -</streetAddress>
		<postalCode>14129</postalCode>
		<latitude>52.43752561</latitude>
		<longitude>13.17685836</longitude>
		<photos/>
	</location>
	<location>
		<id>prinz_74</id>
		<name>Boobs</name>
		<type>Sportaktivitäten &amp; Freizeitangebote,Erotik</type>
		<streetAddress>Kaiser-Friedrich-Str. 54</streetAddress>
		<postalCode>10627</postalCode>
		<latitude>52.50568902</latitude>
		<longitude>13.30236054</longitude>
		<photos/>
	</location>
	<location>
		<id>prinz_75</id>
		<name>Bon Bon</name>
		<type>Sportaktivitäten &amp; Freizeitangebote,Erotik</type>
		<streetAddress>Stuttgarter Platz -</streetAddress>
		<postalCode>10627</postalCode>
		<latitude>52.5054974</latitude>
		<longitude>13.3027112</longitude>
		<photos/>
	</location>
	<location>
		<id>prinz_76</id>
		<name>Bodystreet</name>
		<type>Sportaktivitäten &amp; Freizeitangebote,Fitnessstudio</type>
		<website>http://www.bodystreet.com</website>
		<phone>+493030344671</phone>
		<streetAddress>Knesebeckstr. 55</streetAddress>
		<postalCode>10719</postalCode>
		<latitude>52.5002244</latitude>
		<longitude>13.321834</longitude>
		<photos/>
	</location>
	<location>
		<id>prinz_77</id>
		<name>Body in Balance</name>
		<type>Sportaktivitäten &amp; Freizeitangebote,Fitnessstudio</type>
		<website>http://www.pilatesberlin.de</website>
		<phone>+491723830974</phone>
		<streetAddress>Mehringdamm 69</streetAddress>
		<postalCode>10961</postalCode>
		<latitude>52.4901732</latitude>
		<longitude>13.3865972</longitude>
		<photos/>
	</location>
	<location>
		<id>prinz_78</id>
		<name>BMX-Gelände (Gülzower Straße)</name>
		<type>Sportaktivitäten &amp; Freizeitangebote,Freizeit &amp; Abenteuer</type>
		<streetAddress>Gülzower Str. 27a-53</streetAddress>
		<postalCode>12619</postalCode>
		<latitude>52.51380617</latitude>
		<longitude>13.58095653</longitude>
		<photos/>
	</location>
	<location>
		<id>prinz_79</id>
		<name>BMX-Gelände (Geraer Ring)</name>
		<type>Sportaktivitäten &amp; Freizeitangebote,Freizeit &amp; Abenteuer</type>
		<streetAddress>Geraer Ring 30</streetAddress>
		<postalCode>12689</postalCode>
		<latitude>52.56696618</latitude>
		<longitude>13.5594496</longitude>
		<photos/>
	</location>
	<location>
		<id>prinz_80</id>
		<name>B-Laden</name>
		<type>Sportaktivitäten &amp; Freizeitangebote,Vereine</type>
		<website>http://www.lehrter-strasse-berlin.net/</website>
		<phone>+49303975238</phone>
		<streetAddress>Lehrter Straße 27–30</streetAddress>
		<postalCode>10557</postalCode>
		<latitude>52.5335</latitude>
		<longitude>13.36</longitude>
		<photos/>
	</location>
	<location>
		<id>prinz_81</id>
		<name>Black &amp; White Show Club</name>
		<type>Sportaktivitäten &amp; Freizeitangebote,Erotik</type>
		<streetAddress>Lietzenburger Str. 54</streetAddress>
		<postalCode>10719</postalCode>
		<latitude>52.50051026</latitude>
		<longitude>13.33004161</longitude>
		<photos/>
	</location>
	<location>
		<id>prinz_82</id>
		<name>Blue Lady</name>
		<type>Sportaktivitäten &amp; Freizeitangebote,Erotik</type>
		<streetAddress>Lietzenburger Str. 78</streetAddress>
		<postalCode>10719</postalCode>
		<latitude>52.49997918</latitude>
		<longitude>13.32394419</longitude>
		<photos/>
	</location>
	<location>
		<id>prinz_83</id>
		<name>Billardsalon Poolparadies</name>
		<type>Sportaktivitäten &amp; Freizeitangebote,Billard &amp; Bowling</type>
		<email>info@poolparadies-berlin.de</email>
		<website>http://www.poolparadies-berlin.de/</website>
		<phone>+49305578418</phone>
		<streetAddress>Siegfriedstraße 80</streetAddress>
		<postalCode>10365</postalCode>
		<latitude>52.53191</latitude>
		<longitude>13.5025598</longitude>
		<photos/>
	</location>
	<location>
		<id>prinz_84</id>
		<name>Mos Eisley Gelateria</name>
		<type>Essen &amp; Trinken,Cafés,Eisdielen</type>
		<email>hello@moseisley-gelateria.de</email>
		<website>http://moseisley-gelateria.de/</website>
		<phone>+493023939460</phone>
		<streetAddress>Herrfurthplatz 6</streetAddress>
		<postalCode>12049</postalCode>
		<latitude>52.47729</latitude>
		<longitude>13.421</longitude>
		<rating>5</rating>
		<photos>
			<url>https://img.prinz.de/UytiRmsKL24ZyzVVtlCc-E-kOkE=/370x278/smart/filters:brightness(5):contrast(5)/https://edn-cdn.s3.amazonaws.com/c5/c50c9f3e20a176d8298e4104ac16bda9.jpg</url>
		</photos>
	</location>
	<location>
		<id>prinz_85</id>
		<name>Bootsverleih Plötzensee</name>
		<type>Sportaktivitäten &amp; Freizeitangebote,Bootsverleih</type>
		<streetAddress>Nordufer 23</streetAddress>
		<postalCode>13347</postalCode>
		<latitude>52.54151611</latitude>
		<longitude>13.3319746</longitude>
		<photos/>
	</location>
	<location>
		<id>prinz_86</id>
		<name>Bootsverleih Ludwig</name>
		<type>Sportaktivitäten &amp; Freizeitangebote,Bootsverleih</type>
		<streetAddress>Verlängerte Uferpromenade 21</streetAddress>
		<postalCode>14089</postalCode>
		<latitude>52.45978544</latitude>
		<longitude>13.11427641</longitude>
		<photos/>
	</location>
	<location>
		<id>prinz_87</id>
		<name>Bootsverleih ( Joachimsthaler Str)</name>
		<type>Sportaktivitäten &amp; Freizeitangebote,Bootsverleih</type>
		<streetAddress>Joachimsthaler Str. -</streetAddress>
		<postalCode>16244</postalCode>
		<latitude>52.921864</latitude>
		<longitude>13.726999</longitude>
		<photos/>
	</location>
	<location>
		<id>prinz_88</id>
		<name>Bootsverleih Historisches Fährhaus</name>
		<type>Sportaktivitäten &amp; Freizeitangebote,Bootsverleih</type>
		<website>http://www.bootsverleih-berlin-koepenick.de</website>
		<streetAddress>Müggelbergallee 1</streetAddress>
		<postalCode>12557</postalCode>
		<latitude>52.41855</latitude>
		<longitude>13.58699</longitude>
		<photos/>
	</location>
	<location>
		<id>prinz_89</id>
		<name>Bootsverleih Hessenwinkel</name>
		<type>Sportaktivitäten &amp; Freizeitangebote,Bootsverleih</type>
		<website>http://bootsverleih-hessenwinkel.de</website>
		<phone>+491731043917</phone>
		<streetAddress>Triglawstr. 20</streetAddress>
		<postalCode>12589</postalCode>
		<latitude>52.419029</latitude>
		<longitude>13.721173</longitude>
		<photos/>
	</location>
	<location>
		<id>prinz_90</id>
		<name>Bootsverleih (Friedrich-Engels-Damm)</name>
		<type>Sportaktivitäten &amp; Freizeitangebote,Bootsverleih</type>
		<streetAddress>Friedrich-Engels-Damm -</streetAddress>
		<postalCode>15526</postalCode>
		<latitude>52.251</latitude>
		<longitude>14.047985</longitude>
		<photos/>
	</location>
	<location>
		<id>prinz_91</id>
		<name>Bootsverleih (Erlkönigweg)</name>
		<type>Sportaktivitäten &amp; Freizeitangebote,Bootsverleih</type>
		<streetAddress>Erlkönigweg 3</streetAddress>
		<postalCode>03096</postalCode>
		<latitude>51.85248458</latitude>
		<longitude>14.09567461</longitude>
		<photos/>
	</location>
	<location>
		<id>prinz_92</id>
		<name>Bootsverleih (Dorfstraße)</name>
		<type>Sportaktivitäten &amp; Freizeitangebote,Bootsverleih</type>
		<streetAddress>Dorfstr. 22</streetAddress>
		<postalCode>16244</postalCode>
		<latitude>52.913298</latitude>
		<longitude>13.707725</longitude>
		<photos/>
	</location>
	<location>
		<id>prinz_93</id>
		<name>Bootsverleih (Diensdorfer Weg)</name>
		<type>Sportaktivitäten &amp; Freizeitangebote,Bootsverleih</type>
		<streetAddress>Diensdorfer Weg 3</streetAddress>
		<postalCode>15526</postalCode>
		<latitude>52.259869</latitude>
		<longitude>14.072404</longitude>
		<photos/>
	</location>
	<location>
		<id>prinz_94</id>
		<name>Bootsverleih (An den Stienitzquellen)</name>
		<type>Sportaktivitäten &amp; Freizeitangebote,Bootsverleih</type>
		<streetAddress>An den Stienitzquellen -</streetAddress>
		<postalCode>15562</postalCode>
		<latitude>52.50611899</latitude>
		<longitude>13.81678188</longitude>
		<photos/>
	</location>
	<location>
		<id>prinz_95</id>
		<name>Bootsverleih (Am Obersee)</name>
		<type>Sportaktivitäten &amp; Freizeitangebote,Bootsverleih</type>
		<streetAddress>Am Obersee 6</streetAddress>
		<postalCode>16359</postalCode>
		<latitude>52.7605174</latitude>
		<longitude>13.5583344</longitude>
		<photos/>
	</location>
	<location>
		<id>prinz_96</id>
		<name>Bootsverleih (Alt Kolpin)</name>
		<type>Sportaktivitäten &amp; Freizeitangebote,Bootsverleih</type>
		<streetAddress>Alt Kolpin -</streetAddress>
		<postalCode>15518</postalCode>
		<latitude>52.302379</latitude>
		<longitude>13.997917</longitude>
		<photos/>
	</location>
	<location>
		<id>prinz_97</id>
		<name>BC Gallery</name>
		<type>Kultureinrichtungen,Galerien</type>
		<streetAddress>Libauer Straße 14</streetAddress>
		<postalCode>10245</postalCode>
		<latitude>52.5087552</latitude>
		<longitude>13.4535174</longitude>
		<photos/>
	</location>
	<location>
		<id>prinz_98</id>
		<name>Palazzo</name>
		<type>Essen &amp; Trinken,Restaurants,Gourmet Restaurants</type>
		<website>http://www.palazzo.org</website>
		<phone>+491805388883</phone>
		<streetAddress>Spiegelpalast am Humboldthafen </streetAddress>
		<latitude>52.519171</latitude>
		<longitude>13.4060912</longitude>
		<rating>5</rating>
		<photos>
			<url>https://img.prinz.de/8UryKpixgyKRQko20D7ziXjd6lU=/370x278/smart/filters:brightness(5):contrast(5)/https://media.prinz.de/locations/berlin/berlin/02c32b5b800cab1209779b11e19cad45</url>
		</photos>
	</location>
	<location>
		<id>prinz_99</id>
		<name>Bowlingcenter Schillerpark</name>
		<type>Sportaktivitäten &amp; Freizeitangebote,Billard &amp; Bowling</type>
		<email>info@bowlingcenter-schillerpark.de</email>
		<website>http://www.bowlingcenter-schillerpark.de/</website>
		<phone>+493045022977</phone>
		<streetAddress>Müllerstraße 46</streetAddress>
		<postalCode>13349</postalCode>
		<latitude>52.5515</latitude>
		<longitude>13.3508</longitude>
		<photos/>
	</location>
	<location>
		<id>prinz_100</id>
		<name>BowlingCenter am Alexanderplatz</name>
		<type>Sportaktivitäten &amp; Freizeitangebote,Billard &amp; Bowling</type>
		<website>http://bowling-am-alex.de/</website>
		<streetAddress>Rathausstrasse 5 (Rathaus-Passagen)</streetAddress>
		<postalCode>10178</postalCode>
		<latitude>52.5198741</latitude>
		<longitude>13.4107995</longitude>
		<photos/>
	</location>
	<location>
		<id>prinz_101</id>
		<name>BowlHouse</name>
		<type>Sportaktivitäten &amp; Freizeitangebote,Billard &amp; Bowling</type>
		<website>http://www.bowlhouse.com/</website>
		<phone>+493042161880</phone>
		<streetAddress>Storkower Str. 105-107</streetAddress>
		<postalCode>10407</postalCode>
		<latitude>52.5363102</latitude>
		<longitude>13.4506229</longitude>
		<photos/>
	</location>
	<location>
		<id>prinz_102</id>
		<name>BOWLERO - Bowlingcenter</name>
		<type>Sportaktivitäten &amp; Freizeitangebote,Billard &amp; Bowling</type>
		<email>Bowlero@bowling-in-berlin.de</email>
		<website>http://www.bowling-in-berlin.de/</website>
		<phone>+49302939930</phone>
		<streetAddress>Samariterstrasse 19 - 20</streetAddress>
		<postalCode>10247</postalCode>
		<latitude>52.519739</latitude>
		<longitude>13.4669287</longitude>
		<photos/>
	</location>
	<location>
		<id>prinz_103</id>
		<name>Bowl Arena Spandau</name>
		<type>Sportaktivitäten &amp; Freizeitangebote,Billard &amp; Bowling</type>
		<website>http://www.bowlarena.de/home.html</website>
		<phone>+493035109666</phone>
		<streetAddress>Neuendorfer Straße 39-42</streetAddress>
		<postalCode>13585</postalCode>
		<latitude>52.5492418</latitude>
		<longitude>13.2103894</longitude>
		<photos/>
	</location>
	<location>
		<id>prinz_104</id>
		<name>Boulderhalle bright site</name>
		<type>Sportaktivitäten &amp; Freizeitangebote,Freizeit &amp; Abenteuer</type>
		<email>info@ikarus-berlin.de</email>
		<website>http://www.boulder-project.de/</website>
		<phone>+493049080707</phone>
		<streetAddress>Wilhelm-Kabus-Str. 40, Naumannpark, Haus 10</streetAddress>
		<postalCode>10829</postalCode>
		<latitude>52.4803778</latitude>
		<longitude>13.3597304</longitude>
		<photos>
			<url>https://img.prinz.de/i3H_2xJ8s6ShfG47qJoae9Um61U=/370x278/smart/filters:brightness(5):contrast(5)/https://edn-cdn.s3.amazonaws.com/7d/7df3d65af3ea56fcebb7870992e9c7a6.jpg</url>
		</photos>
	</location>
	<location>
		<id>prinz_105</id>
		<name>Bootsverleih (Willischzaweg)</name>
		<type>Sportaktivitäten &amp; Freizeitangebote,Bootsverleih</type>
		<streetAddress>Willischzaweg 42</streetAddress>
		<postalCode>03096</postalCode>
		<latitude>51.868431</latitude>
		<longitude>14.129033</longitude>
		<photos/>
	</location>
	<location>
		<id>prinz_106</id>
		<name>Bootsverleih-Tegelort Borchardt</name>
		<type>Sportaktivitäten &amp; Freizeitangebote,Bootsverleih</type>
		<streetAddress>Friederickestr. 21</streetAddress>
		<postalCode>13505</postalCode>
		<latitude>52.57008743</latitude>
		<longitude>13.22911972</longitude>
		<photos/>
	</location>
	<location>
		<id>prinz_107</id>
		<name>Bootsverleih Seeschloß</name>
		<type>Sportaktivitäten &amp; Freizeitangebote,Bootsverleih</type>
		<streetAddress>Seestr. 13</streetAddress>
		<postalCode>15518</postalCode>
		<latitude>52.3607616</latitude>
		<longitude>14.2979905</longitude>
		<photos/>
	</location>
	<location>
		<id>prinz_108</id>
		<name>Bootsverleih ( Seerandstr)</name>
		<type>Sportaktivitäten &amp; Freizeitangebote,Bootsverleih</type>
		<streetAddress>Seerandstr. 9</streetAddress>
		<postalCode>16247</postalCode>
		<latitude>52.9507361</latitude>
		<longitude>13.7178201</longitude>
		<photos/>
	</location>
	<location>
		<id>prinz_109</id>
		<name>Bootsverleih (Schwarzhorner Weg)</name>
		<type>Sportaktivitäten &amp; Freizeitangebote,Bootsverleih</type>
		<streetAddress>Schwarzhorner Weg 22</streetAddress>
		<postalCode>15864</postalCode>
		<latitude>52.220513</latitude>
		<longitude>14.017749</longitude>
		<photos/>
	</location>
	<location>
		<id>prinz_110</id>
		<name>Bootsverleih (Schwarze Ecke)</name>
		<type>Sportaktivitäten &amp; Freizeitangebote,Bootsverleih</type>
		<streetAddress>Schwarze Ecke 1</streetAddress>
		<postalCode>03096</postalCode>
		<latitude>51.84349569</latitude>
		<longitude>14.10312365</longitude>
		<photos/>
	</location>
	<location>
		<id>prinz_111</id>
		<name>Restaurant Reinstoff</name>
		<type>Essen &amp; Trinken,Restaurants,Gourmet Restaurants</type>
		<website>http://www.reinstoff.eu/</website>
		<phone>+493030881214</phone>
		<streetAddress>Schlegestr. (Edisonhöfen) 26c</streetAddress>
		<postalCode>10115</postalCode>
		<latitude>52.5299173</latitude>
		<longitude>13.3861202</longitude>
		<rating>5</rating>
		<photos>
			<url>https://img.prinz.de/DvT8JPHzYBUIzbUyrYOnJika0tM=/370x278/smart/filters:brightness(5):contrast(5)/https://edn-cdn.s3.amazonaws.com/19/1963395bdf6ff5933fa83c61575ee9bc.jpg</url>
		</photos>
	</location>
	<location>
		<id>prinz_112</id>
		<name>Campingplatz am Röblinsee</name>
		<type>Sportaktivitäten &amp; Freizeitangebote,Campingplätze </type>
		<streetAddress>Nord 1</streetAddress>
		<postalCode>16798</postalCode>
		<latitude>53.18788148</latitude>
		<longitude>13.12627335</longitude>
		<photos/>
	</location>
	<location>
		<id>prinz_113</id>
		<name>Campingplatz Am Glambecksee</name>
		<type>Sportaktivitäten &amp; Freizeitangebote,Campingplätze </type>
		<streetAddress>Seestr. 17</streetAddress>
		<postalCode>16909</postalCode>
		<latitude>53.21792892</latitude>
		<longitude>12.57911704</longitude>
		<photos/>
	</location>
	<location>
		<id>prinz_114</id>
		<name>Campingplatz am Liepnitzsee</name>
		<type>Sportaktivitäten &amp; Freizeitangebote,Campingplätze </type>
		<streetAddress>Am Liepnitzsee 8 a</streetAddress>
		<postalCode>16359</postalCode>
		<latitude>52.75127007</latitude>
		<longitude>13.51696559</longitude>
		<photos/>
	</location>
	<location>
		<id>prinz_115</id>
		<name>Camping Himmelpfort</name>
		<type>Sportaktivitäten &amp; Freizeitangebote,Campingplätze </type>
		<streetAddress>Am Stolpsee 1</streetAddress>
		<postalCode>16798</postalCode>
		<latitude>53.16735109</latitude>
		<longitude>13.23388617</longitude>
		<photos/>
	</location>
	<location>
		<id>prinz_116</id>
		<name>Camping am Spring</name>
		<type>Sportaktivitäten &amp; Freizeitangebote,Campingplätze </type>
		<streetAddress>Seerandstr. -</streetAddress>
		<postalCode>16247</postalCode>
		<latitude>52.91902129</latitude>
		<longitude>13.66606414</longitude>
		<photos/>
	</location>
	<location>
		<id>prinz_117</id>
		<name>Butterfly</name>
		<type>Sportaktivitäten &amp; Freizeitangebote,Erotik</type>
		<streetAddress>Danziger Str. 138</streetAddress>
		<postalCode>10407</postalCode>
		<latitude>52.53486131</latitude>
		<longitude>13.43536114</longitude>
		<photos/>
	</location>
	<location>
		<id>prinz_118</id>
		<name>BUNTE SCHOKOWELT</name>
		<type>Sportaktivitäten &amp; Freizeitangebote,Freizeit &amp; Abenteuer</type>
		<website>http://www.ritter-sport.de/#/de_DE/berlin/</website>
		<phone>+493020095080</phone>
		<streetAddress>Französische Straße 24</streetAddress>
		<postalCode>10117</postalCode>
		<latitude>52.5147243</latitude>
		<longitude>13.3904532</longitude>
		<photos/>
	</location>
	<location>
		<id>prinz_119</id>
		<name>Breakers e.V. 1996</name>
		<type>Sportaktivitäten &amp; Freizeitangebote,Billard &amp; Bowling</type>
		<website>http://www.breakers-berlin.de/index.html</website>
		<phone>+491797360970</phone>
		<streetAddress>Flottenstraße 56, Haus 2, 2. OG</streetAddress>
		<postalCode>13407</postalCode>
		<latitude>52.57683</latitude>
		<longitude>13.36584</longitude>
		<photos/>
	</location>
	<location>
		<id>prinz_120</id>
		<name>Bowlplay Berlin</name>
		<type>Sportaktivitäten &amp; Freizeitangebote,Billard &amp; Bowling</type>
		<email>info@bowlplay-berlin.de</email>
		<website>http://www.bowlplay-berlin.de/</website>
		<phone>+493043035050</phone>
		<streetAddress>Am Borsigturm 2</streetAddress>
		<postalCode>13507</postalCode>
		<latitude>52.58576</latitude>
		<longitude>13.28706</longitude>
		<photos/>
	</location>
	<location>
		<id>prinz_121</id>
		<name>Bowling-Treff Marzahn</name>
		<type>Sportaktivitäten &amp; Freizeitangebote,Billard &amp; Bowling</type>
		<website>http://www.IhrBowlingTreff.de/</website>
		<phone>+49309379193</phone>
		<streetAddress>Oberweißbacher Straße 7</streetAddress>
		<postalCode>12687</postalCode>
		<latitude>52.55714</latitude>
		<longitude>13.57054</longitude>
		<photos/>
	</location>
	<location>
		<id>prinz_122</id>
		<name>Bowling Hellersdorf</name>
		<type>Sportaktivitäten &amp; Freizeitangebote,Billard &amp; Bowling</type>
		<email>info@bowling-hellersdorf.de</email>
		<website>http://www.Bowling-Hellersdorf.de/</website>
		<phone>+49305635345</phone>
		<streetAddress>Feldberger Ring 5</streetAddress>
		<postalCode>12619</postalCode>
		<latitude>52.52775</latitude>
		<longitude>13.58735</longitude>
		<photos/>
	</location>
	<location>
		<id>prinz_123</id>
		<name>Bowling Lounge Berlin</name>
		<type>Sportaktivitäten &amp; Freizeitangebote,Billard &amp; Bowling</type>
		<email>bowling-lounge-berlin@email.de</email>
		<website>http://www.topbowling.de/</website>
		<phone>+493057797690</phone>
		<streetAddress>Mauritiuskirchstrasse 3</streetAddress>
		<postalCode>10365</postalCode>
		<latitude>52.51197</latitude>
		<longitude>13.47711</longitude>
		<photos/>
	</location>
	<location>
		<id>prinz_124</id>
		<name>Berliner Friedenszentrum</name>
		<type>Kultureinrichtungen</type>
		<website>https://www.berliner-friedenszentrum.de/</website>
		<streetAddress>Nestorstraße 36</streetAddress>
		<postalCode>10709</postalCode>
		<latitude>52.50082</latitude>
		<longitude>13.37577</longitude>
		<photos/>
	</location>
	<location>
		<id>prinz_125</id>
		<name>Caprice</name>
		<type>Sportaktivitäten &amp; Freizeitangebote,Erotik</type>
		<streetAddress>Berliner Str. 131</streetAddress>
		<postalCode>13467</postalCode>
		<latitude>52.61547527</latitude>
		<longitude>13.31710934</longitude>
		<photos/>
	</location>
	<location>
		<id>prinz_126</id>
		<name>Camping Waldsee</name>
		<type>Sportaktivitäten &amp; Freizeitangebote,Campingplätze </type>
		<streetAddress>Alt Kolpin 4</streetAddress>
		<postalCode>15526</postalCode>
		<latitude>52.29968632</latitude>
		<longitude>13.99474824</longitude>
		<photos/>
	</location>
	<location>
		<id>prinz_127</id>
		<name>Camping Triangel Tour</name>
		<type>Sportaktivitäten &amp; Freizeitangebote,Campingplätze </type>
		<streetAddress>Dorfstr. 31</streetAddress>
		<postalCode>16248</postalCode>
		<latitude>52.84041747</latitude>
		<longitude>13.90182126</longitude>
		<photos/>
	</location>
	<location>
		<id>prinz_128</id>
		<name>Camping Schwarzhorn</name>
		<type>Sportaktivitäten &amp; Freizeitangebote,Campingplätze </type>
		<streetAddress>Schwarzhorner Weg 22</streetAddress>
		<postalCode>15864</postalCode>
		<latitude>52.220513</latitude>
		<longitude>14.017749</longitude>
		<photos/>
	</location>
	<location>
		<id>prinz_129</id>
		<name>Camping Sanssouci-Gaisberg</name>
		<type>Sportaktivitäten &amp; Freizeitangebote,Campingplätze </type>
		<streetAddress>An der Pirschheide 41</streetAddress>
		<postalCode>14471</postalCode>
		<latitude>52.35914798</latitude>
		<longitude>13.00694049</longitude>
		<photos/>
	</location>
	<location>
		<id>prinz_130</id>
		<name>Camping Riegelspitze</name>
		<type>Sportaktivitäten &amp; Freizeitangebote,Campingplätze </type>
		<streetAddress>Fercher Str. -</streetAddress>
		<postalCode>14542</postalCode>
		<latitude>52.35939958</latitude>
		<longitude>12.94097713</longitude>
		<photos/>
	</location>
	<location>
		<id>prinz_131</id>
		<name>Campingplatz Parsteiner See</name>
		<type>Sportaktivitäten &amp; Freizeitangebote,Campingplätze </type>
		<website>http://www.parsteiner-see-camping.de</website>
		<phone>+4933365362</phone>
		<streetAddress>Am See 1</streetAddress>
		<postalCode>16248</postalCode>
		<latitude>52.92106425</latitude>
		<longitude>14.02852002</longitude>
		<photos/>
	</location>
	<location>
		<id>prinz_132</id>
		<name>Campingplatz Jägerbude</name>
		<type>Sportaktivitäten &amp; Freizeitangebote,Campingplätze </type>
		<streetAddress>Jägerbude -</streetAddress>
		<postalCode>15537</postalCode>
		<latitude>52.3864075</latitude>
		<longitude>13.77854233</longitude>
		<photos/>
	</location>
	<location>
		<id>prinz_133</id>
		<name>Campingplatz Hettler und Lange</name>
		<type>Sportaktivitäten &amp; Freizeitangebote,Campingplätze </type>
		<streetAddress>Am Bäkehang 9a</streetAddress>
		<postalCode>14532</postalCode>
		<latitude>52.4003744</latitude>
		<longitude>13.178425</longitude>
		<photos/>
	</location>
	<location>
		<id>prinz_134</id>
		<name>Campingplatz Breitehorn</name>
		<type>Sportaktivitäten &amp; Freizeitangebote,Campingplätze </type>
		<streetAddress>Breitehornweg 24</streetAddress>
		<postalCode>14089</postalCode>
		<latitude>52.46860882</latitude>
		<longitude>13.17382045</longitude>
		<photos/>
	</location>
	<location>
		<id>prinz_135</id>
		<name>Campingplatz am Werbellinsee</name>
		<type>Sportaktivitäten &amp; Freizeitangebote,Campingplätze </type>
		<streetAddress>Seerandstr. 9</streetAddress>
		<postalCode>16247</postalCode>
		<latitude>52.9507361</latitude>
		<longitude>13.7178201</longitude>
		<photos/>
	</location>
	<location>
		<id>prinz_136</id>
		<name>Bildungszentrum der BStU</name>
		<type>Kultureinrichtungen,Museum</type>
		<email>bildungszentrum@bstu.bund.de</email>
		<website>http://www.bstu.bund.de</website>
		<phone>+493023247951</phone>
		<streetAddress>Zimmerstr. 90/91</streetAddress>
		<postalCode>10117</postalCode>
		<latitude>52.5077</latitude>
		<longitude>13.3904</longitude>
		<photos>
			<url>https://img.prinz.de/o_-OPT4worSjIe0-8AZfcv9W3GM=/370x278/smart/filters:brightness(5):contrast(5)/https://media.prinz.de/locations/berlin/berlin/e17d44d5354a1938dff829b435feb930</url>
		</photos>
	</location>
	<location>
		<id>prinz_137</id>
		<name>Campingplatz Am Westufer des Scharmützelsee</name>
		<type>Sportaktivitäten &amp; Freizeitangebote,Campingplätze </type>
		<streetAddress>Friedrich-Engels-Damm 97</streetAddress>
		<postalCode>15526</postalCode>
		<latitude>52.2577648</latitude>
		<longitude>14.0475204</longitude>
		<photos/>
	</location>
	<location>
		<id>prinz_138</id>
		<name>City Men Shop &amp; Video</name>
		<type>Sportaktivitäten &amp; Freizeitangebote,Erotik</type>
		<streetAddress>Fuggerstr. 26</streetAddress>
		<postalCode>10777</postalCode>
		<latitude>52.49904854</latitude>
		<longitude>13.34374728</longitude>
		<photos/>
	</location>
	<location>
		<id>prinz_139</id>
		<name>City-Camping Hettler und Lange</name>
		<type>Sportaktivitäten &amp; Freizeitangebote,Campingplätze </type>
		<streetAddress>Gartenfelder Str. 1</streetAddress>
		<postalCode>13599</postalCode>
		<latitude>52.55132404</latitude>
		<longitude>13.24892281</longitude>
		<photos/>
	</location>
	<location>
		<id>prinz_140</id>
		<name>Circus Schatzinsel</name>
		<type>Sportaktivitäten &amp; Freizeitangebote,Freizeit &amp; Abenteuer</type>
		<email>schatzinsel@vuesch.org</email>
		<website>https://www.vuesch.org/schatzinsel/index.html</website>
		<phone>+493022502461</phone>
		<streetAddress>May-Ayim-Ufer 4</streetAddress>
		<postalCode>10997</postalCode>
		<latitude>52.5022632</latitude>
		<longitude>13.442433</longitude>
		<photos/>
	</location>
	<location>
		<id>prinz_141</id>
		<name>Chocolat Nightclub</name>
		<type>Sportaktivitäten &amp; Freizeitangebote,Erotik</type>
		<streetAddress>Stuttgarter Platz 16</streetAddress>
		<postalCode>10627</postalCode>
		<latitude>52.50511972</latitude>
		<longitude>13.3010025</longitude>
		<photos/>
	</location>
	<location>
		<id>prinz_142</id>
		<name>Chiquita Bar</name>
		<type>Sportaktivitäten &amp; Freizeitangebote,Erotik</type>
		<streetAddress>Alt Moabit 54</streetAddress>
		<postalCode>10555</postalCode>
		<latitude>52.52402863</latitude>
		<longitude>13.32880955</longitude>
		<photos/>
	</location>
	<location>
		<id>prinz_143</id>
		<name>Chimosa</name>
		<type>Sportaktivitäten &amp; Freizeitangebote,Yoga </type>
		<website>http://chimosa.de/de/philosophie/</website>
		<phone>+493033855588</phone>
		<streetAddress>Linienstraße 127</streetAddress>
		<postalCode>10115</postalCode>
		<latitude>52.52676</latitude>
		<longitude>13.38929</longitude>
		<photos/>
	</location>
	<location>
		<id>prinz_144</id>
		<name>Chez Michelle</name>
		<type>Ausgehen,Strip-Clubs</type>
		<website>http://www.chez-michelle.de/</website>
		<streetAddress>Marburger Str. 15</streetAddress>
		<postalCode>10789</postalCode>
		<latitude>52.50295191</latitude>
		<longitude>13.33704737</longitude>
		<photos/>
	</location>
	<location>
		<id>prinz_145</id>
		<name>Chen Taiji Berlin</name>
		<type>Shopping &amp; Style,Weitere Adressen</type>
		<website>http://www.taiji-berlin.de</website>
		<phone>+49304486560</phone>
		<streetAddress>Kastanienallee 79</streetAddress>
		<postalCode>10435</postalCode>
		<latitude>52.5368143</latitude>
		<longitude>13.4078243</longitude>
		<photos/>
	</location>
	<location>
		<id>prinz_146</id>
		<name>Chateau Bruni</name>
		<type>Sportaktivitäten &amp; Freizeitangebote,Erotik</type>
		<streetAddress>Haubachstr. 22</streetAddress>
		<postalCode>10585</postalCode>
		<latitude>52.51554656</latitude>
		<longitude>13.30330476</longitude>
		<photos/>
	</location>
	<location>
		<id>prinz_147</id>
		<name>Center of Dance</name>
		<type>Sportaktivitäten &amp; Freizeitangebote,Tanzschulen</type>
		<website>http://www.centerofdance.net</website>
		<phone>+493023134238</phone>
		<streetAddress>Schönhauser Allee 36</streetAddress>
		<postalCode>10435</postalCode>
		<latitude>52.539419</latitude>
		<longitude>13.412389</longitude>
		<photos/>
	</location>
	<location>
		<id>prinz_148</id>
		<name>CC 96</name>
		<type>Sportaktivitäten &amp; Freizeitangebote,Erotik</type>
		<streetAddress>Lietzenburger Str. 96</streetAddress>
		<postalCode>10719</postalCode>
		<latitude>52.4997657</latitude>
		<longitude>13.31978937</longitude>
		<photos/>
	</location>
	<location>
		<id>prinz_149</id>
		<name>Cascade Sexkino</name>
		<type>Sportaktivitäten &amp; Freizeitangebote,Erotik</type>
		<streetAddress>Kantstr. 120</streetAddress>
		<postalCode>10625</postalCode>
		<latitude>52.50635136</latitude>
		<longitude>13.30993275</longitude>
		<photos/>
	</location>
	<location>
		<id>prinz_150</id>
		<name>Wegner</name>
		<type>Essen &amp; Trinken,Restaurants,Internationale Küche</type>
		<email>genuss@restaurant-wegner.de</email>
		<website>http://www.restaurant-wegner.de</website>
		<phone>+493053081966</phone>
		<streetAddress>Dahlmannstr 22</streetAddress>
		<postalCode>10629</postalCode>
		<latitude>52.5005529</latitude>
		<longitude>13.3039293</longitude>
		<rating>5</rating>
		<photos/>
	</location>
	<location>
		<id>prinz_151</id>
		<name>Burger Collection</name>
		<type>Kultureinrichtungen,Galerien</type>
		<streetAddress>Zimmerstr. 90/91</streetAddress>
		<postalCode>10117</postalCode>
		<latitude>52.50776</latitude>
		<longitude>13.38784</longitude>
		<photos/>
	</location>
	<location>
		<id>prinz_152</id>
		<name>Club Sophia</name>
		<type>Sportaktivitäten &amp; Freizeitangebote,Erotik</type>
		<streetAddress>Savignyplatz 1</streetAddress>
		<postalCode>10623</postalCode>
		<latitude>52.50532223</latitude>
		<longitude>13.32305387</longitude>
		<photos/>
	</location>
	<location>
		<id>prinz_153</id>
		<name>Club Pssst</name>
		<type>Sportaktivitäten &amp; Freizeitangebote,Erotik</type>
		<streetAddress>Brandenburgische Str. 73</streetAddress>
		<postalCode>10707</postalCode>
		<latitude>52.48837125</latitude>
		<longitude>13.31693851</longitude>
		<photos/>
	</location>
	<location>
		<id>prinz_154</id>
		<name>Club Paradies</name>
		<type>Sportaktivitäten &amp; Freizeitangebote,Erotik</type>
		<streetAddress>Schönower Chaussee 53</streetAddress>
		<postalCode>16321</postalCode>
		<latitude>52.68200797</latitude>
		<longitude>13.56566386</longitude>
		<photos/>
	</location>
	<location>
		<id>prinz_155</id>
		<name>Club Olympus Spa &amp; Fitness</name>
		<type>Sportaktivitäten &amp; Freizeitangebote,Fitnessstudio</type>
		<website>http://www.berlin.grand.hyatt.de</website>
		<phone>+493025531234</phone>
		<streetAddress>Marlene-Dietrich-Platz 3</streetAddress>
		<postalCode>10785</postalCode>
		<latitude>52.50759531</latitude>
		<longitude>13.37176108</longitude>
		<photos/>
	</location>
	<location>
		<id>prinz_156</id>
		<name>Club Madame</name>
		<type>Sportaktivitäten &amp; Freizeitangebote,Erotik</type>
		<streetAddress>Metzer Str. 26</streetAddress>
		<postalCode>10405</postalCode>
		<latitude>52.53121787</latitude>
		<longitude>13.41788739</longitude>
		<photos/>
	</location>
	<location>
		<id>prinz_157</id>
		<name>Club Bar 2000</name>
		<type>Sportaktivitäten &amp; Freizeitangebote,Erotik</type>
		<streetAddress>Dominicusstr. 26</streetAddress>
		<postalCode>10823</postalCode>
		<latitude>52.48285281</latitude>
		<longitude>13.34632871</longitude>
		<photos/>
	</location>
	<location>
		<id>prinz_158</id>
		<name>Club 77</name>
		<type>Sportaktivitäten &amp; Freizeitangebote,Erotik</type>
		<streetAddress>Kantstr. 77</streetAddress>
		<postalCode>10627</postalCode>
		<latitude>52.50700272</latitude>
		<longitude>13.29795384</longitude>
		<photos/>
	</location>
	<location>
		<id>prinz_159</id>
		<name>Club 44</name>
		<type>Sportaktivitäten &amp; Freizeitangebote,Erotik</type>
		<streetAddress>Mittenwalder Str. 44</streetAddress>
		<postalCode>10961</postalCode>
		<latitude>52.49183759</latitude>
		<longitude>13.39669031</longitude>
		<photos/>
	</location>
	<location>
		<id>prinz_160</id>
		<name>Club 37</name>
		<type>Sportaktivitäten &amp; Freizeitangebote,Erotik</type>
		<streetAddress>Schönreicher Allee 37</streetAddress>
		<postalCode>15370</postalCode>
		<latitude>52.51005708</latitude>
		<longitude>13.74029411</longitude>
		<photos/>
	</location>
	<location>
		<id>prinz_161</id>
		<name>Claustrophobia im Alexa</name>
		<type>Sportaktivitäten &amp; Freizeitangebote,Freizeit &amp; Abenteuer</type>
		<website>http://phobia.berlin/</website>
		<streetAddress>Grunerstraße 20 (im 3. OG des Alexa Shoppingcenters)</streetAddress>
		<postalCode>10179</postalCode>
		<latitude>52.5121401</latitude>
		<longitude>13.414046</longitude>
		<photos/>
	</location>
	<location>
		<id>prinz_162</id>
		<name>City Yoga</name>
		<type>Sportaktivitäten &amp; Freizeitangebote,Fitnessstudio</type>
		<website>http://www.cityyogaberlin.de</website>
		<phone>+493044045900</phone>
		<streetAddress>Dorotheenstr 60</streetAddress>
		<postalCode>10117</postalCode>
		<latitude>52.518588</latitude>
		<longitude>13.3862179</longitude>
		<photos/>
	</location>
	<location>
		<id>prinz_163</id>
		<name>City Sports</name>
		<type>Sportaktivitäten &amp; Freizeitangebote,Fitnessstudio</type>
		<phone>+49308739097</phone>
		<streetAddress>Brandenburgische Straße 53</streetAddress>
		<postalCode>10707</postalCode>
		<latitude>52.4938</latitude>
		<longitude>13.30942</longitude>
		<photos/>
	</location>
	<location>
		<id>prinz_164</id>
		<name>Aiko</name>
		<type>Essen &amp; Trinken,Restaurants,Japanische Restaurants</type>
		<phone>+493028098111</phone>
		<streetAddress>Brunnenstr. 193</streetAddress>
		<postalCode>10119</postalCode>
		<latitude>52.53146949</latitude>
		<longitude>13.39969405</longitude>
		<rating>4</rating>
		<photos/>
	</location>
	<location>
		<id>prinz_165</id>
		<name>Aida</name>
		<type>Essen &amp; Trinken,Restaurants,Italienische Restaurants</type>
		<email>aida-camillo@web.de</email>
		<website>http://www.aida-restaurant.de</website>
		<phone>+493031806750</phone>
		<streetAddress>Knesebeckstr. 83</streetAddress>
		<postalCode>10623</postalCode>
		<latitude>52.50663048</latitude>
		<longitude>13.32268515</longitude>
		<rating>4</rating>
		<photos/>
	</location>
	<location>
		<id>prinz_166</id>
		<name>AmmAmma</name>
		<type>Essen &amp; Trinken,Restaurants,Indische Restaurants</type>
		<phone>+493074073516</phone>
		<streetAddress>Urbanstr. 28a</streetAddress>
		<postalCode>10967</postalCode>
		<latitude>52.4921028</latitude>
		<longitude>13.4118166</longitude>
		<rating>4</rating>
		<photos/>
	</location>
	<location>
		<id>prinz_167</id>
		<name>A'Magica</name>
		<type>Essen &amp; Trinken,Restaurants,Italienische Restaurants</type>
		<phone>+493022808290</phone>
		<streetAddress>Greifenhagener Str. 54</streetAddress>
		<postalCode>10437</postalCode>
		<latitude>52.54791</latitude>
		<longitude>13.41522</longitude>
		<rating>4</rating>
		<photos/>
	</location>
	<location>
		<id>prinz_168</id>
		<name>Alt Berliner Weißbierstube </name>
		<type>Essen &amp; Trinken,Restaurants,Bürgerliche Restaurants</type>
		<website>http://www.alt-berliner-weissbierstube.de/</website>
		<phone>+49302424454</phone>
		<streetAddress>Rathausstraße 21</streetAddress>
		<postalCode>10178</postalCode>
		<latitude>52.5179082</latitude>
		<longitude>13.4055924</longitude>
		<rating>4</rating>
		<photos/>
	</location>
	<location>
		<id>prinz_169</id>
		<name>Alpenstück</name>
		<type>Essen &amp; Trinken,Restaurants,Österreichische Restaurants</type>
		<email>info@alpenstueck.de</email>
		<website>http://www.alpenstueck.de</website>
		<phone>+493021751646</phone>
		<streetAddress>Gartenstraße 9</streetAddress>
		<postalCode>10115</postalCode>
		<latitude>52.530166</latitude>
		<longitude>13.391775</longitude>
		<rating>4</rating>
		<photos/>
	</location>
	<location>
		<id>prinz_170</id>
		<name>Alfio's Ars Vivendi</name>
		<type>Essen &amp; Trinken,Restaurants,Italienische Restaurants</type>
		<website>http://www.arsvivendi-catering.de/</website>
		<phone>+49308619389</phone>
		<streetAddress>Holsteinische Straße 18</streetAddress>
		<postalCode>10717</postalCode>
		<latitude>52.4475001</latitude>
		<longitude>13.5767705</longitude>
		<rating>4</rating>
		<photos>
			<url>https://img.prinz.de/yW1Fcemo5lY9IuedMXpjoBFgyj4=/370x278/smart/filters:brightness(5):contrast(5)/https://edn-cdn.s3.amazonaws.com/ac/ac58be541403b0d8f10e02ccabb187c3.jpg</url>
		</photos>
	</location>
	<location>
		<id>prinz_171</id>
		<name>Aldemir Eis</name>
		<type>Essen &amp; Trinken,Cafés,Eisdielen</type>
		<email>eis.aldemir@gmail.com</email>
		<website>http://aldemireis.de/</website>
		<streetAddress>Falckensteinstraße 7</streetAddress>
		<postalCode>10997</postalCode>
		<latitude>52.4992281545</latitude>
		<longitude>13.4427145767</longitude>
		<rating>4</rating>
		<photos>
			<url>https://img.prinz.de/pZuNR0KFh1DehJBuEc9qrAo0oBg=/370x278/smart/filters:brightness(5):contrast(5)/https://edn-cdn.s3.amazonaws.com/5c/5c8f840d4b9d5677511b976a73fe2495.jpg</url>
		</photos>
	</location>
	<location>
		<id>prinz_172</id>
		<name>Al Contadino Sotto Le Stelle</name>
		<type>Essen &amp; Trinken,Restaurants,Gourmet Restaurants</type>
		<website>http://www.alcontadinoweinbar.de/</website>
		<phone>+493027592102</phone>
		<streetAddress>Gormannstraße 10</streetAddress>
		<postalCode>10119</postalCode>
		<latitude>52.52748848</latitude>
		<longitude>13.40018462</longitude>
		<rating>4</rating>
		<photos>
			<url>https://img.prinz.de/rVGFENWKRk4zOtfXpxgP_20yM0k=/370x278/smart/filters:brightness(5):contrast(5)/https://edn-cdn.s3.amazonaws.com/35/35c16cd3a4ba1f6829980aa25ebca5a2.jpg</url>
		</photos>
	</location>
	<location>
		<id>prinz_173</id>
		<name>A la Verdy</name>
		<type>Essen &amp; Trinken,Restaurants,Bürgerliche Restaurants</type>
		<phone>+493021912410</phone>
		<streetAddress>Regensburger Str. 5</streetAddress>
		<postalCode>10777</postalCode>
		<latitude>52.495881</latitude>
		<longitude>13.338615</longitude>
		<rating>4</rating>
		<photos/>
	</location>
	<location>
		<id>prinz_174</id>
		<name>Aki Tatsu</name>
		<type>Essen &amp; Trinken,Restaurants,Japanische Restaurants</type>
		<email>akitatsu_kant@yahoo.de</email>
		<website>http://www.akitatsu.de/</website>
		<phone>+493023607861</phone>
		<streetAddress>Winterfeldtstr. 40</streetAddress>
		<postalCode>10781</postalCode>
		<latitude>52.4973102</latitude>
		<longitude>13.3546041</longitude>
		<rating>4</rating>
		<photos/>
	</location>
	<location>
		<id>prinz_175</id>
		<name>Akitama</name>
		<type>Essen &amp; Trinken,Restaurants,Japanische Restaurants</type>
		<website>http://www.akitama.de</website>
		<phone>+4930755277</phone>
		<streetAddress>Wittenbergplatz 3a</streetAddress>
		<postalCode>10789</postalCode>
		<latitude>52.501123</latitude>
		<longitude>13.343228</longitude>
		<rating>4</rating>
		<photos/>
	</location>
	<location>
		<id>prinz_176</id>
		<name>Der Bootsladen</name>
		<type>Sportaktivitäten &amp; Freizeitangebote,Bootsverleih</type>
		<streetAddress>Brandensteinweg 8</streetAddress>
		<postalCode>13595</postalCode>
		<latitude>52.51340666</latitude>
		<longitude>13.21227545</longitude>
		<photos/>
	</location>
	<location>
		<id>prinz_177</id>
		<name>Alarabi</name>
		<type>Essen &amp; Trinken,Restaurants,Orientalische Restaurants</type>
		<phone>+493029771995</phone>
		<streetAddress>Krossenerstr. 19</streetAddress>
		<postalCode>10245</postalCode>
		<latitude>52.51047299</latitude>
		<longitude>13.45867155</longitude>
		<rating>4</rating>
		<photos>
			<url>https://img.prinz.de/TcBmyjBESGL6wNdFfcen5BvdNJE=/370x278/smart/filters:brightness(5):contrast(5)/https://media.prinz.de/locations/berlin/berlin/73a8e05e3cb29cfef9c7e13eb967f60d</url>
		</photos>
	</location>
	<location>
		<id>prinz_178</id>
		<name>DCC-Campingplatz Gatow</name>
		<type>Sportaktivitäten &amp; Freizeitangebote,Campingplätze </type>
		<streetAddress>Kladower Damm 207-213</streetAddress>
		<postalCode>14089</postalCode>
		<latitude>52.46596802</latitude>
		<longitude>13.16387398</longitude>
		<photos/>
	</location>
	<location>
		<id>prinz_179</id>
		<name>DCC-Campingplatz Berlin-Kladow</name>
		<type>Sportaktivitäten &amp; Freizeitangebote,Campingplätze </type>
		<streetAddress>Krampnitzer Weg 111-117</streetAddress>
		<postalCode>14089</postalCode>
		<latitude>52.45396567</latitude>
		<longitude>13.1128152</longitude>
		<photos/>
	</location>
	<location>
		<id>prinz_180</id>
		<name>DCC-Camping am Krossinsee</name>
		<type>Sportaktivitäten &amp; Freizeitangebote,Campingplätze </type>
		<streetAddress>Wernsdorfer Str. 38</streetAddress>
		<postalCode>12527</postalCode>
		<latitude>52.36888038</latitude>
		<longitude>13.68407384</longitude>
		<photos/>
	</location>
	<location>
		<id>prinz_181</id>
		<name>Bangaluu</name>
		<type>Ausgehen,Clubs</type>
		<phone>+4930809693077</phone>
		<streetAddress>Invalidenstraße 30</streetAddress>
		<postalCode>10115</postalCode>
		<latitude>52.5311084</latitude>
		<longitude>13.3845245</longitude>
		<photos/>
	</location>
	<location>
		<id>prinz_182</id>
		<name>Bar Raval</name>
		<type>Essen &amp; Trinken,Restaurants,Spanische Restaurants</type>
		<email>hola@barraval.de</email>
		<website>http://barraval.de/</website>
		<phone>+493053167954</phone>
		<streetAddress>Lübbener Str. 1</streetAddress>
		<postalCode>10997</postalCode>
		<latitude>52.49813</latitude>
		<longitude>13.4366</longitude>
		<rating>4</rating>
		<photos>
			<url>https://img.prinz.de/aQgSzR25houwXJElDHEVoXp_1lI=/370x278/smart/filters:brightness(5):contrast(5)/https://edn-cdn.s3.amazonaws.com/9b/9bfff5f288e881ba2182f2d1a7d406ea.jpg</url>
		</photos>
	</location>
	<location>
		<id>prinz_183</id>
		<name>Bandol sur Mer</name>
		<type>Essen &amp; Trinken,Restaurants,Französische Restaurants</type>
		<phone>+493067302051</phone>
		<streetAddress>Torstr. 167</streetAddress>
		<postalCode>10115</postalCode>
		<latitude>52.52919</latitude>
		<longitude>13.39531</longitude>
		<rating>4</rating>
		<photos>
			<url>https://img.prinz.de/JZEhCVtkkzaWRtUwsjjeaqEJ8lc=/370x278/smart/filters:brightness(5):contrast(5)/https://media.prinz.de/locations/berlin/berlin/c5c1daa2032f07692129c3ad6b55cd2e</url>
		</photos>
	</location>
	<location>
		<id>prinz_184</id>
		<name>Atame</name>
		<type>Essen &amp; Trinken,Restaurants,Spanische Restaurants</type>
		<email>atame@atame-tapasbar.de</email>
		<website>http://www.atame-tapasbar.de</website>
		<phone>+493028042560</phone>
		<streetAddress>Dircksenstr. 40</streetAddress>
		<postalCode>10178</postalCode>
		<latitude>52.52352504</latitude>
		<longitude>13.40679276</longitude>
		<rating>4</rating>
		<photos/>
	</location>
	<location>
		<id>prinz_185</id>
		<name>Ars Vini I</name>
		<type>Essen &amp; Trinken,Restaurants,Internationale Küche</type>
		<email>fondue@arsvini.de</email>
		<website>http://www.arsvini.de</website>
		<phone>+493054714182</phone>
		<streetAddress>Sredzkistr. 27</streetAddress>
		<postalCode>10435</postalCode>
		<latitude>52.5385173</latitude>
		<longitude>13.4166081</longitude>
		<rating>4</rating>
		<photos/>
	</location>
	<location>
		<id>prinz_186</id>
		<name>Aroma</name>
		<type>Essen &amp; Trinken,Restaurants,Chinesische Restaurants</type>
		<phone>+493037591628</phone>
		<streetAddress>Kantstr. 35</streetAddress>
		<postalCode>10625</postalCode>
		<latitude>52.50635681</latitude>
		<longitude>13.31538267</longitude>
		<rating>4</rating>
		<photos>
			<url>https://img.prinz.de/LbEddVKTc53bM8jxl1XFOtEBy7Y=/370x278/smart/filters:brightness(5):contrast(5)/https://media.prinz.de/locations/berlin/berlin/3176ce9a9724b6a5fc0307d39777cd54</url>
		</photos>
	</location>
	<location>
		<id>prinz_187</id>
		<name>Arcimboldo</name>
		<type>Essen &amp; Trinken,Restaurants,Italienische Restaurants</type>
		<website>http://www.ristorantearcimboldo.de</website>
		<phone>+498023707</phone>
		<streetAddress>Clayallee  347</streetAddress>
		<postalCode>14169</postalCode>
		<latitude>52.4360252</latitude>
		<longitude>13.2602569</longitude>
		<rating>4</rating>
		<photos/>
	</location>
	<location>
		<id>prinz_188</id>
		<name>Antonello</name>
		<type>Essen &amp; Trinken,Restaurants,Italienische Restaurants</type>
		<phone>+49303243516</phone>
		<streetAddress>Leibnizstraße 43</streetAddress>
		<postalCode>10629</postalCode>
		<latitude>52.50416646</latitude>
		<longitude>13.3137961</longitude>
		<rating>4</rating>
		<photos/>
	</location>
	<location>
		<id>prinz_189</id>
		<name>Annamaria</name>
		<type>Essen &amp; Trinken,Cafés,Eisdielen</type>
		<website>http://www.eiscafe-annamaria.de/</website>
		<phone>+493047378669</phone>
		<streetAddress>Husemannstr. 14</streetAddress>
		<postalCode>10435</postalCode>
		<latitude>52.53794</latitude>
		<longitude>13.41783</longitude>
		<rating>4</rating>
		<photos/>
	</location>
	<location>
		<id>prinz_190</id>
		<name>Angry Chicken</name>
		<type>Essen &amp; Trinken,Restaurants,Imbisse</type>
		<website>http://angry-chicken.com/</website>
		<streetAddress>Oranienstraße 16</streetAddress>
		<postalCode>10999</postalCode>
		<latitude>52.49873</latitude>
		<longitude>13.42608</longitude>
		<rating>4</rating>
		<photos/>
	</location>
	<location>
		<id>prinz_191</id>
		<name>Amrit (Winterfeldtstraße)</name>
		<type>Essen &amp; Trinken,Restaurants,Indische Restaurants</type>
		<email>amrit-winterfeldtstr@amrit.de</email>
		<website>http://www.amrit.de/</website>
		<phone>+493021014640</phone>
		<streetAddress>Winterfeldtstr. 40</streetAddress>
		<postalCode>10781</postalCode>
		<latitude>52.49714123</latitude>
		<longitude>13.35488231</longitude>
		<rating>4</rating>
		<photos/>
	</location>
	<location>
		<id>prinz_192</id>
		<name>Anabelas Kitchen</name>
		<type>Essen &amp; Trinken,Restaurants,Internationale Küche</type>
		<email>mail@anabelas-kitchen.de</email>
		<website>http://anabelas-kitchen.de</website>
		<phone>+493028701224</phone>
		<streetAddress>Pestalozzistr. 3</streetAddress>
		<postalCode>10625</postalCode>
		<latitude>52.50792</latitude>
		<longitude>13.31968</longitude>
		<rating>4</rating>
		<photos/>
	</location>
	<location>
		<id>prinz_193</id>
		<name>Ballhaus Rixdorf</name>
		<type>Ausgehen,Konzertlocations</type>
		<website>http://www.ballhaus-rixdorf.de/</website>
		<streetAddress>Kottbusser Damm 15 76 </streetAddress>
		<postalCode>10967</postalCode>
		<latitude>52.492415</latitude>
		<longitude>13.42232</longitude>
		<photos/>
	</location>
	<location>
		<id>prinz_194</id>
		<name>Baiz</name>
		<type>Ausgehen,Bars,Bar</type>
		<website>http://www.baiz.info/index.html</website>
		<streetAddress>Christinenstr.1 / Ecke Torstr.</streetAddress>
		<postalCode>10119</postalCode>
		<latitude>52.5296455</latitude>
		<longitude>13.4017946</longitude>
		<photos/>
	</location>
	<location>
		<id>prinz_195</id>
		<name>Badenscher Hof</name>
		<type>Ausgehen,Clubs</type>
		<website>http://www.badenscher-hof.de/</website>
		<phone>+49308610080</phone>
		<streetAddress>Badensche Straße 29 / Ecke Berliner Straße</streetAddress>
		<postalCode>10715</postalCode>
		<latitude>52.48728</latitude>
		<longitude>13.3292</longitude>
		<photos/>
	</location>
	<location>
		<id>prinz_196</id>
		<name>Badehaus</name>
		<type>Ausgehen,Clubs</type>
		<email>info@badehaus-berlin.com</email>
		<website>http://www.badehaus-berlin.com/</website>
		<streetAddress>Revaler Str. 99</streetAddress>
		<postalCode>10245</postalCode>
		<latitude>52.5071121</latitude>
		<longitude>13.451997</longitude>
		<photos>
			<url>https://img.prinz.de/hSCw1BCp6pg3t12e_zDywbnk59Y=/370x278/smart/filters:brightness(5):contrast(5)/https://media.prinz.de/locations/berlin/berlin/49d8cecaa141b48e8d92d30d704c5577.png</url>
		</photos>
	</location>
	<location>
		<id>prinz_197</id>
		<name>Bar dello Sport</name>
		<type>Ausgehen,Bars,Bar</type>
		<email>info@bar-dello-sport.de</email>
		<website>http://www.bar-dello-sport.de</website>
		<phone>+493094400055</phone>
		<streetAddress>Eisenacher Str. 23</streetAddress>
		<postalCode>10781</postalCode>
		<latitude>52.4943374</latitude>
		<longitude>13.3494487</longitude>
		<photos/>
	</location>
	<location>
		<id>prinz_198</id>
		<name>Bar Central</name>
		<type>Ausgehen,Bars,Bar</type>
		<website>http://www.bar-central.eu/</website>
		<streetAddress>Schönhauser Allee 155</streetAddress>
		<postalCode>10435</postalCode>
		<latitude>52.53741042</latitude>
		<longitude>13.41211368</longitude>
		<photos/>
	</location>
	<location>
		<id>prinz_199</id>
		<name>Brot und Salz</name>
		<type>Essen &amp; Trinken,Restaurants,Internationale Küche</type>
		<email>info@restaurant-brotundsalz.de</email>
		<website>http://restaurant-brotundsalz.de/</website>
		<phone>+493036421776</phone>
		<streetAddress>Uhlandstr. 144</streetAddress>
		<postalCode>10719</postalCode>
		<latitude>52.4956086</latitude>
		<longitude>13.3241847</longitude>
		<rating>4</rating>
		<photos>
			<url>https://img.prinz.de/_aVwyxrzNknwDKTe7WeeQfMZl7g=/370x278/smart/filters:brightness(5):contrast(5)/https://media.prinz.de/locations/berlin/berlin/30300e645bea17e2442a0fc3349af9df</url>
		</photos>
	</location>
	<location>
		<id>prinz_200</id>
		<name>Brenner</name>
		<type>Essen &amp; Trinken,Restaurants,Bürgerliche Restaurants</type>
		<email>restaurant-brenner@email.de</email>
		<website>http://www.restaurant-brenner.de</website>
		<phone>+493023624470</phone>
		<streetAddress>Regensburger Str. 7</streetAddress>
		<postalCode>10777</postalCode>
		<latitude>52.49625</latitude>
		<longitude>13.33732</longitude>
		<rating>4</rating>
		<photos>
			<url>https://img.prinz.de/J4oF-LZ0Jua_ty3foVIA3K6-49Y=/370x278/smart/filters:brightness(5):contrast(5)/https://media.prinz.de/locations/berlin/berlin/d8671569e61883a18b3a77b9d000c979</url>
		</photos>
	</location>
	<location>
		<id>prinz_201</id>
		<name>Brel</name>
		<type>Essen &amp; Trinken,Restaurants,Französische Restaurants</type>
		<email>office@cafe-brel.de</email>
		<website>http://www.cafe-brel.de</website>
		<phone>+493031800080</phone>
		<streetAddress>Savingyplatz 1</streetAddress>
		<postalCode>10623</postalCode>
		<latitude>52.50532223</latitude>
		<longitude>13.32305387</longitude>
		<rating>4</rating>
		<photos/>
	</location>
	<location>
		<id>prinz_202</id>
		<name>Brasil Brasileiro</name>
		<type>Essen &amp; Trinken,Restaurants,Brasilianische Restaurants</type>
		<email>info@brasil-brasileiro.de</email>
		<website>http://www.brasil-brasileiro.de</website>
		<phone>+493089409889</phone>
		<streetAddress>Kurfürstendamm 151</streetAddress>
		<postalCode>10709</postalCode>
		<latitude>52.49869265</latitude>
		<longitude>13.30067877</longitude>
		<rating>4</rating>
		<photos>
			<url>https://img.prinz.de/FWdivwtBazVVDDs3HJFYdQTu5uU=/370x278/smart/filters:brightness(5):contrast(5)/https://media.prinz.de/locations/berlin/berlin/2631b82ce16556663a0b227de6f6ae05</url>
		</photos>
	</location>
	<location>
		<id>prinz_203</id>
		<name>Bootshaus Stella</name>
		<type>Essen &amp; Trinken,Restaurants,Internationale Küche</type>
		<email>cafe@bootshausamlietzensee.de</email>
		<website>http://www.stella-alpina.de/bootshaus_cafe.php</website>
		<streetAddress>Witzlebenplatz 1</streetAddress>
		<postalCode>14057</postalCode>
		<latitude>52.5093661</latitude>
		<longitude>13.2929055</longitude>
		<rating>4</rating>
		<photos>
			<url>https://img.prinz.de/q0d1M-pKGtlG0NFMrF0pyY1g9B4=/370x278/smart/filters:brightness(5):contrast(5)/https://media.prinz.de/locations/berlin/berlin/228252123d4e0ff8e5906afb9d0302de</url>
		</photos>
	</location>
	<location>
		<id>prinz_204</id>
		<name>Bond</name>
		<type>Essen &amp; Trinken,Restaurants,Internationale Küche</type>
		<email>info@bond-berlin.de</email>
		<website>http://www.bond-berlin.de/</website>
		<phone>+493050968844</phone>
		<streetAddress>Knesebeckstraße 76</streetAddress>
		<postalCode>10623</postalCode>
		<latitude>52.504338</latitude>
		<longitude>13.322226</longitude>
		<rating>4</rating>
		<photos>
			<url>https://img.prinz.de/8TjMeNW2x2lixMQKcmZSRjeDXnM=/370x278/smart/filters:brightness(5):contrast(5)/https://media.prinz.de/locations/berlin/berlin/39a58d3f2451b75855e618938c75e63c</url>
		</photos>
	</location>
	<location>
		<id>prinz_205</id>
		<name>Block House Berlin (Brandenburger Tor)</name>
		<type>Essen &amp; Trinken,Restaurants,Amerikanische Restaurants</type>
		<email>info@block-house.de</email>
		<website>http://block-house.de</website>
		<phone>+49302290400</phone>
		<streetAddress>Wilhelmstr. 59</streetAddress>
		<postalCode>10117</postalCode>
		<latitude>52.51507243</latitude>
		<longitude>13.38164561</longitude>
		<rating>4</rating>
		<photos/>
	</location>
	<location>
		<id>prinz_206</id>
		<name>Berliner Hof</name>
		<type>Essen &amp; Trinken,Restaurants,Bürgerliche Restaurants</type>
		<website>http://wilmersdorf-restaurant.de</website>
		<phone>+493085072860</phone>
		<streetAddress>Hildegardstr. 14</streetAddress>
		<postalCode>10715</postalCode>
		<latitude>52.48213</latitude>
		<longitude>13.32219</longitude>
		<rating>4</rating>
		<photos/>
	</location>
	<location>
		<id>prinz_207</id>
		<name>Berkis</name>
		<type>Essen &amp; Trinken,Restaurants,Griechische Restaurants</type>
		<email>info@berkis.de</email>
		<website>http://www.berkis.de</website>
		<phone>+493077900402</phone>
		<streetAddress>Winterfeldtstraße 45</streetAddress>
		<postalCode>10781</postalCode>
		<latitude>52.497007</latitude>
		<longitude>13.353756</longitude>
		<rating>4</rating>
		<photos/>
	</location>
	<location>
		<id>prinz_208</id>
		<name>Belmont</name>
		<type>Essen &amp; Trinken,Restaurants,Österreichische Restaurants</type>
		<phone>+493034067407</phone>
		<streetAddress>Rheingaustr. 14</streetAddress>
		<postalCode>12161</postalCode>
		<latitude>52.4728042</latitude>
		<longitude>13.3215628</longitude>
		<rating>4</rating>
		<photos/>
	</location>
	<location>
		<id>prinz_209</id>
		<name>Belmondo</name>
		<type>Essen &amp; Trinken,Restaurants,Französische Restaurants</type>
		<website>http://www.belmondo-berlin.de</website>
		<phone>+493036287261</phone>
		<streetAddress>Knesebeckstraße 93</streetAddress>
		<postalCode>10623</postalCode>
		<latitude>52.5089266</latitude>
		<longitude>13.3229057</longitude>
		<rating>4</rating>
		<photos/>
	</location>
	<location>
		<id>prinz_210</id>
		<name>Basi'l</name>
		<type>Essen &amp; Trinken,Restaurants,Internationale Küche</type>
		<website>http://www.basilberlin.de/</website>
		<phone>+493028097381</phone>
		<streetAddress>Dircksenstr. 47</streetAddress>
		<postalCode>10178</postalCode>
		<latitude>52.5234974</latitude>
		<longitude>13.4048554</longitude>
		<rating>4</rating>
		<photos>
			<url>https://img.prinz.de/bfihx0J9zfquZO7rnHCECS6Y7aU=/370x278/smart/filters:brightness(5):contrast(5)/https://media.prinz.de/locations/berlin/berlin/fb0379ea81c3a7b81c52542119ebfa4b</url>
		</photos>
	</location>
	<location>
		<id>prinz_211</id>
		<name>BarbieBar</name>
		<type>Ausgehen,Bars,Bar</type>
		<website>http://www.barbiebar.de/</website>
		<phone>+493069568610</phone>
		<streetAddress>Mehringdamm 77</streetAddress>
		<postalCode>10965</postalCode>
		<latitude>52.48959</latitude>
		<longitude>13.38683</longitude>
		<photos/>
	</location>
	<location>
		<id>prinz_212</id>
		<name>Bar Schwarz</name>
		<type>Ausgehen,Bars,Bar</type>
		<website>http://the-weinmeister.com</website>
		<streetAddress>Weinmeisterstr. 2</streetAddress>
		<postalCode>10178</postalCode>
		<latitude>52.52557</latitude>
		<longitude>13.40457</longitude>
		<photos/>
	</location>
	<location>
		<id>prinz_213</id>
		<name>Barbie Deinhoff's</name>
		<type>Ausgehen,Bars,Bar</type>
		<website>http://www.barbiedeinhoff.de</website>
		<phone>+493069531053</phone>
		<streetAddress>Schlesische Str. 16</streetAddress>
		<postalCode>10997</postalCode>
		<latitude>52.49907042</latitude>
		<longitude>13.44567642</longitude>
		<photos/>
	</location>
	<location>
		<id>prinz_214</id>
		<name>BAR Sodom &amp; Gomorra</name>
		<type>Ausgehen,Bars,Bar</type>
		<website>http://www.bar-sodomundgomorra.de/</website>
		<phone>+493099004088</phone>
		<streetAddress>Torstraße 164</streetAddress>
		<postalCode>10115</postalCode>
		<latitude>52.5288896</latitude>
		<longitude>13.3958715</longitude>
		<photos>
			<url>https://img.prinz.de/6__F3RWgOZJ7T5UcPs0pe-YFKxw=/370x278/smart/filters:brightness(5):contrast(5)/https://edn-cdn.s3.amazonaws.com/6a/6af4f08ea429f64996570daacaf1fdc8.jpg</url>
		</photos>
	</location>
	<location>
		<id>prinz_215</id>
		<name>Ca'nova</name>
		<type>Essen &amp; Trinken,Restaurants,Italienische Restaurants</type>
		<website>http://www.canova-trattoria.de</website>
		<phone>+493040056091</phone>
		<streetAddress>Rykestr. 2</streetAddress>
		<postalCode>10405</postalCode>
		<latitude>52.5349372</latitude>
		<longitude>13.4192206</longitude>
		<rating>4</rating>
		<photos/>
	</location>
	<location>
		<id>prinz_216</id>
		<name>Cancun</name>
		<type>Essen &amp; Trinken,Restaurants,Mexikanische Restaurants</type>
		<website>http://www.cancun-restaurant.de</website>
		<phone>+493020911666</phone>
		<streetAddress>Ebertstr. 14</streetAddress>
		<postalCode>10117</postalCode>
		<latitude>52.51048397</latitude>
		<longitude>13.37692327</longitude>
		<rating>4</rating>
		<photos/>
	</location>
	<location>
		<id>prinz_217</id>
		<name>Café Voland</name>
		<type>Essen &amp; Trinken,Restaurants,Russische Restaurants</type>
		<email>russisch@voland-cafe.de</email>
		<website>http://www.voland-cafe.de</website>
		<phone>+49304440422</phone>
		<streetAddress>Wichertstr. 63</streetAddress>
		<postalCode>10439</postalCode>
		<latitude>52.54969443</latitude>
		<longitude>13.41842693</longitude>
		<rating>4</rating>
		<photos/>
	</location>
	<location>
		<id>prinz_218</id>
		<name>Café V</name>
		<type>Essen &amp; Trinken,Restaurants,Vegetarische Restaurants</type>
		<phone>+49306124505</phone>
		<streetAddress>Lausitzer Platz 12</streetAddress>
		<postalCode>10997</postalCode>
		<latitude>52.5008677</latitude>
		<longitude>13.4313775</longitude>
		<rating>4</rating>
		<photos/>
	</location>
	<location>
		<id>prinz_219</id>
		<name>Café Märchenwaffel </name>
		<type>Essen &amp; Trinken,Cafés,Café</type>
		<streetAddress>Warschauer Straße 61</streetAddress>
		<postalCode>10243</postalCode>
		<latitude>52.5099532</latitude>
		<longitude>13.4518136</longitude>
		<rating>4</rating>
		<photos/>
	</location>
	<location>
		<id>prinz_220</id>
		<name>Café Madrid</name>
		<type>Essen &amp; Trinken,Restaurants,Internationale Küche</type>
		<website>http://meliaberlin.com</website>
		<phone>+49302060790150</phone>
		<streetAddress>im Meliá Hotel, Friedrichstr. 103</streetAddress>
		<postalCode>10117</postalCode>
		<latitude>52.52144</latitude>
		<longitude>13.3883</longitude>
		<rating>4</rating>
		<photos/>
	</location>
	<location>
		<id>prinz_221</id>
		<name>Café Einstein</name>
		<type>Essen &amp; Trinken,Cafés,Café</type>
		<email>contact@cafeeinstein.com</email>
		<website>http://www.cafeeinstein.com/</website>
		<phone>+49302615096</phone>
		<streetAddress>Kurfürstenstr. 58</streetAddress>
		<postalCode>10785</postalCode>
		<latitude>52.50201657</latitude>
		<longitude>13.35456591</longitude>
		<rating>4</rating>
		<photos>
			<url>https://img.prinz.de/Ss9vnKfKyedw8s12tDxBTT_G3BU=/370x278/smart/filters:brightness(5):contrast(5)/https://media.prinz.de/locations/berlin/berlin/2aa5e28859618caff29c34cc6025aa53</url>
		</photos>
	</location>
	<location>
		<id>prinz_222</id>
		<name>Cafe do Brasil</name>
		<type>Essen &amp; Trinken,Restaurants,Brasilianische Restaurants</type>
		<email>mail@cafe-do-brasil.de</email>
		<website>http://www.cafe-do-brasil.de/</website>
		<phone>+493078006887</phone>
		<streetAddress>Dudenstr. 2</streetAddress>
		<postalCode>10965</postalCode>
		<latitude>52.49018234</latitude>
		<longitude>13.38622447</longitude>
		<rating>4</rating>
		<photos/>
	</location>
	<location>
		<id>prinz_223</id>
		<name>Café Constance</name>
		<type>Essen &amp; Trinken,Cafés,Kaffeehaus</type>
		<website>http://www.cafe-constance.de</website>
		<streetAddress>Hohes Ende 4</streetAddress>
		<postalCode>16818</postalCode>
		<latitude>52.850138</latitude>
		<longitude>12.862285</longitude>
		<rating>4</rating>
		<photos/>
	</location>
	<location>
		<id>prinz_224</id>
		<name>Café - betahaus</name>
		<type>Essen &amp; Trinken,Cafés,Café</type>
		<website>http://www.betahaus.com/berlin/</website>
		<streetAddress>Prinzessinnenstr. 19-20</streetAddress>
		<postalCode>10969</postalCode>
		<latitude>52.5025428</latitude>
		<longitude>13.4120509</longitude>
		<rating>4</rating>
		<photos>
			<url>https://img.prinz.de/EEEbcZkVghxtcmL8ZwpuAxsFPKI=/370x278/smart/filters:brightness(5):contrast(5)/https://edn-cdn.s3.amazonaws.com/fc/fcb5c2c8c9c42e6db5338c7641273b0a.jpg</url>
		</photos>
	</location>
	<location>
		<id>prinz_225</id>
		<name>Café Aroma</name>
		<type>Essen &amp; Trinken,Restaurants,Italienische Restaurants</type>
		<email>info@cafe-aroma.de</email>
		<website>http://www.cafe-aroma.de/</website>
		<phone>+49307825821</phone>
		<streetAddress>Hochkirchstraße 8</streetAddress>
		<postalCode>10829</postalCode>
		<latitude>52.49027</latitude>
		<longitude>13.3695</longitude>
		<rating>4</rating>
		<photos/>
	</location>
	<location>
		<id>prinz_226</id>
		<name>Café Altes Europa</name>
		<type>Essen &amp; Trinken,Restaurants,Internationale Küche</type>
		<website>http://www.alteseuropa.com</website>
		<phone>+493028385588</phone>
		<streetAddress>Gipsstr. 11</streetAddress>
		<postalCode>10119</postalCode>
		<latitude>52.526733</latitude>
		<longitude>13.401313</longitude>
		<rating>4</rating>
		<photos/>
	</location>
	<location>
		<id>prinz_227</id>
		<name>Bar Rosa</name>
		<type>Ausgehen,Bars,Bar</type>
		<phone>+491774821648</phone>
		<streetAddress>Spreewaldplatz 2</streetAddress>
		<postalCode>10999</postalCode>
		<latitude>52.49854</latitude>
		<longitude>13.431323</longitude>
		<photos/>
	</location>
	<location>
		<id>prinz_228</id>
		<name>Bei Ruth</name>
		<type>Ausgehen,Clubs</type>
		<website>http://www.bei-ruth.de</website>
		<streetAddress>Ziegrastraße 11-13</streetAddress>
		<postalCode>12057</postalCode>
		<latitude>52.4763948</latitude>
		<longitude>13.4592138</longitude>
		<photos/>
	</location>
	<location>
		<id>prinz_229</id>
		<name>Beilsteiner Straße</name>
		<type>Ausgehen,Konzertlocations</type>
		<streetAddress>Beilsteiner Str. 131 </streetAddress>
		<postalCode>12681</postalCode>
		<latitude>52.53012</latitude>
		<longitude>13.529104</longitude>
		<photos/>
	</location>
	<location>
		<id>prinz_230</id>
		<name>Chi Chi Kan</name>
		<type>Essen &amp; Trinken,Restaurants,Chinesische Restaurants</type>
		<website>http://www.chichikan.de/</website>
		<phone>+493054716651</phone>
		<streetAddress>Golzstr. 52</streetAddress>
		<postalCode>10781</postalCode>
		<latitude>52.489992</latitude>
		<longitude>13.353231</longitude>
		<rating>4</rating>
		<photos>
			<url>https://img.prinz.de/wrUFUh54TjQfqyUv4RojMUn3WKg=/370x278/smart/filters:brightness(5):contrast(5)/https://media.prinz.de/locations/berlin/berlin/4257a9d7c0f7ff30448dd10d867fb075</url>
		</photos>
	</location>
	<location>
		<id>prinz_231</id>
		<name>ChiChiKan</name>
		<type>Essen &amp; Trinken,Restaurants,Euroasiatisch Restaurants</type>
		<website>http://www.chichikan.de/</website>
		<phone>+493054716651</phone>
		<streetAddress>Goltzstraße 52</streetAddress>
		<postalCode>10781</postalCode>
		<latitude>52.49017</latitude>
		<longitude>13.35279</longitude>
		<rating>4</rating>
		<photos/>
	</location>
	<location>
		<id>prinz_232</id>
		<name>Chicago Williams BBQ</name>
		<type>Essen &amp; Trinken,Restaurants,Amerikanische Restaurants</type>
		<phone>+493028042422</phone>
		<streetAddress>Hannoversche Str. 2</streetAddress>
		<postalCode>10115</postalCode>
		<latitude>52.5271533</latitude>
		<longitude>13.3856489</longitude>
		<rating>4</rating>
		<photos/>
	</location>
	<location>
		<id>prinz_233</id>
		<name>Chez Gino</name>
		<type>Essen &amp; Trinken,Restaurants,Französische Restaurants</type>
		<phone>+493069506525</phone>
		<streetAddress>Sorauer Str. 31</streetAddress>
		<postalCode>10997</postalCode>
		<latitude>52.49948105</latitude>
		<longitude>13.43919226</longitude>
		<rating>4</rating>
		<photos/>
	</location>
	<location>
		<id>prinz_234</id>
		<name>Chén Chè</name>
		<type>Essen &amp; Trinken,Restaurants,Euroasiatisch Restaurants</type>
		<email>info@chenche-berlin.de</email>
		<website>http://www.chenche-berlin.de</website>
		<phone>+493028884282</phone>
		<streetAddress>Rosenthaler Str. 13</streetAddress>
		<postalCode>10119</postalCode>
		<latitude>52.5274508</latitude>
		<longitude>13.4027892</longitude>
		<rating>4</rating>
		<photos>
			<url>https://img.prinz.de/jrKjWPqp0Au78TCypgAvj2-vdHQ=/370x278/smart/filters:brightness(5):contrast(5)/https://media.prinz.de/locations/berlin/berlin/83e8c3dd19a2c942f50fdd3ecd8beda7</url>
		</photos>
	</location>
	<location>
		<id>prinz_235</id>
		<name>Chay Village</name>
		<type>Essen &amp; Trinken,Restaurants,Vegetarische Restaurants</type>
		<phone>+493089204554</phone>
		<streetAddress>Eisenacher Str. 40</streetAddress>
		<postalCode>12629</postalCode>
		<latitude>52.5395441</latitude>
		<longitude>13.5873601</longitude>
		<rating>4</rating>
		<photos/>
	</location>
	<location>
		<id>prinz_236</id>
		<name>Chapter One</name>
		<type>Essen &amp; Trinken,Cafés,Café</type>
		<email>nora@chapter-one-coffee.com</email>
		<website>http://www.chapter-one-coffee.com/</website>
		<streetAddress>Mittenwalder Straße 30</streetAddress>
		<postalCode>10961</postalCode>
		<latitude>52.4924298</latitude>
		<longitude>13.3965824</longitude>
		<rating>4</rating>
		<photos>
			<url>https://img.prinz.de/Nd12Mg-kM8T3DzrMXKbokoZNWFs=/370x278/smart/filters:brightness(5):contrast(5)/https://edn-cdn.s3.amazonaws.com/f7/f7ed3abcbafa041adb2c76713129746e.jpg</url>
		</photos>
	</location>
	<location>
		<id>prinz_237</id>
		<name>Chai Yo</name>
		<type>Essen &amp; Trinken,Restaurants,Thailändische Restaurants</type>
		<phone>+493069515260</phone>
		<streetAddress>Skalitzer Str 95a</streetAddress>
		<postalCode>10997</postalCode>
		<latitude>52.4995769</latitude>
		<longitude>13.4322165</longitude>
		<rating>4</rating>
		<photos/>
	</location>
	<location>
		<id>prinz_238</id>
		<name>Cha Chà</name>
		<type>Essen &amp; Trinken,Restaurants,Euroasiatisch Restaurants</type>
		<email>service.friedrichstrasse@eatchacha.com</email>
		<website>http://www.eatchacha.com</website>
		<phone>+493020625960</phone>
		<streetAddress>Friedrichstr. 63</streetAddress>
		<postalCode>10117</postalCode>
		<latitude>52.5119019</latitude>
		<longitude>13.3896602</longitude>
		<rating>4</rating>
		<photos>
			<url>https://img.prinz.de/2dSbprwqyvE5ffMR3iBU7fd56fA=/370x278/smart/filters:brightness(5):contrast(5)/https://media.prinz.de/locations/berlin/berlin/af94ed86634ac593f1d8a142af5ba64a</url>
		</photos>
	</location>
	<location>
		<id>prinz_239</id>
		<name>Carlos' Caravela</name>
		<type>Essen &amp; Trinken,Restaurants,Spanische Restaurants</type>
		<website>http://www.carlos-tapas.de</website>
		<phone>+49308522660</phone>
		<streetAddress>Dickhardtstr. 27</streetAddress>
		<postalCode>12161</postalCode>
		<latitude>52.46724458</latitude>
		<longitude>13.33151649</longitude>
		<rating>4</rating>
		<photos/>
	</location>
	<location>
		<id>prinz_240</id>
		<name>Caramello</name>
		<type>Essen &amp; Trinken,Cafés,Eisdielen</type>
		<website>http://www.caramello-dopamino.de/</website>
		<phone>+493060955226</phone>
		<streetAddress>Hufelandstr. 14 </streetAddress>
		<postalCode>10407</postalCode>
		<latitude>52.53207</latitude>
		<longitude>13.43096</longitude>
		<rating>4</rating>
		<photos/>
	</location>
	<location>
		<id>prinz_241</id>
		<name>Cape Town</name>
		<type>Essen &amp; Trinken,Restaurants,Afrikanische Restaurants</type>
		<website>http://www.capetown-restaurant.de</website>
		<phone>+493040057658</phone>
		<streetAddress>Schönfließer Straße 15</streetAddress>
		<postalCode>10439</postalCode>
		<latitude>52.551831</latitude>
		<longitude>13.408296</longitude>
		<rating>4</rating>
		<photos/>
	</location>
	<location>
		<id>prinz_242</id>
		<name>Bei Ernst</name>
		<type>Ausgehen,Konzertlocations</type>
		<website>http://www.bei-ernst.de</website>
		<phone>+49304543365</phone>
		<streetAddress>Sprengelstr. 15 </streetAddress>
		<postalCode>13353</postalCode>
		<latitude>52.541747</latitude>
		<longitude>13.354682</longitude>
		<photos/>
	</location>
	<location>
		<id>prinz_243</id>
		<name>Begine</name>
		<type>Ausgehen,Clubs</type>
		<email>kultur@begine.de</email>
		<website>http://www.begine.de/</website>
		<phone>+49302151414</phone>
		<streetAddress>Potsdamer Str. 139</streetAddress>
		<postalCode>10783</postalCode>
		<latitude>52.49673823</latitude>
		<longitude>13.36184985</longitude>
		<photos/>
	</location>
	<location>
		<id>prinz_244</id>
		<name>Beate Uwe</name>
		<type>Ausgehen,Clubs</type>
		<email>info@beate-uwe.de</email>
		<website>http://www.beate-uwe.de</website>
		<phone>+493008150815</phone>
		<streetAddress>Schillingstraße 31</streetAddress>
		<postalCode>10179</postalCode>
		<latitude>52.51745</latitude>
		<longitude>13.41923</longitude>
		<photos>
			<url>https://img.prinz.de/Ykx8PdaY_P6lMy_de9MuK7wXsZk=/370x278/smart/filters:brightness(5):contrast(5)/https://edn-cdn.s3.amazonaws.com/0b/0b29fde8d4774634c833c79f56df9401</url>
		</photos>
	</location>
	<location>
		<id>prinz_245</id>
		<name>Besenkammer</name>
		<type>Ausgehen,Bars,Bar</type>
		<postalCode>10178</postalCode>
		<latitude>52.5221879</latitude>
		<longitude>13.4093313</longitude>
		<photos/>
